[
  {
    "id": 1,
    "title": "Nom",
    "category": {
      "fr": "Bibliothèque",
      "en": "Library"
    },
    "borough": null,
    "location": {
      "lat": 0,
      "lng": 0
    },
    "description": "Bibliothèque  Type Téléphone",
    "source": ""
  },
  {
    "id": 2,
    "title": "Bibliothèque du Haut-Anjou",
    "category": {
      "fr": "Bibliothèque",
      "en": "Library"
    },
    "borough": null,
    "location": {
      "lat": 45.6012103,
      "lng": -73.5755717
    },
    "description": "Bibliothèque  Municipale 514 493-8271",
    "source": ""
  },
  {
    "id": 3,
    "title": "Bibliothèque Saul-Bellow",
    "category": {
      "fr": "Bibliothèque",
      "en": "Library"
    },
    "borough": null,
    "location": {
      "lat": 45.4397704,
      "lng": -73.6911608
    },
    "description": "Bibliothèque  Municipale 514 872-5080",
    "source": ""
  },
  {
    "id": 4,
    "title": "Bibliothèque d'Ahuntsic",
    "category": {
      "fr": "Bibliothèque",
      "en": "Library"
    },
    "borough": null,
    "location": {
      "lat": 45.5533616,
      "lng": -73.6626335
    },
    "description": "Bibliothèque  Municipale 514 872-0568",
    "source": ""
  },
  {
    "id": 5,
    "title": "Bibliothèque de Salaberry",
    "category": {
      "fr": "Bibliothèque",
      "en": "Library"
    },
    "borough": null,
    "location": {
      "lat": 45.534498,
      "lng": -73.703924
    },
    "description": "Bibliothèque  Municipale 514 872-1521",
    "source": ""
  },
  {
    "id": 6,
    "title": "Bibliothèque de Côte-des-Neiges",
    "category": {
      "fr": "Bibliothèque",
      "en": "Library"
    },
    "borough": null,
    "location": {
      "lat": 45.4960201,
      "lng": -73.6221885
    },
    "description": "Bibliothèque  Municipale 514 872-6603",
    "source": ""
  },
  {
    "id": 7,
    "title": "Bibliothèque de Notre-Dame-de-Grâce",
    "category": {
      "fr": "Bibliothèque",
      "en": "Library"
    },
    "borough": "Côte-des-Neiges - Notre-Dame-de-Grâce",
    "location": {
      "lat": 45.47551,
      "lng": -73.614579
    },
    "description": " Ouverte en 1984 dans un édifice bâti en 1910 et qui a longtemps servi de poste de police, la bibliothèque de Notre-Dame-de-Grâce prenait la relève de la petite bibliothèque qui existait depu",
    "source": "lieuxCulturels"
  },
  {
    "id": 8,
    "title": "Bibliothèque d'Hochelaga",
    "category": {
      "fr": "Bibliothèque",
      "en": "Library"
    },
    "borough": null,
    "location": {
      "lat": 45.542371,
      "lng": -73.5452678
    },
    "description": "Bibliothèque  Municipale 514 872-3666",
    "source": ""
  },
  {
    "id": 9,
    "title": "Bibliothèque Langelier",
    "category": {
      "fr": "Bibliothèque",
      "en": "Library"
    },
    "borough": "Mercier - Hochelaga-Maisonneuve",
    "location": {
      "lat": 45.5817147,
      "lng": -73.5440686
    },
    "description": " La bibliothèque Langelier abrite une oeuvre tout à fait représentative de l'engagement des bibliothèques dans leur milieu et de leur importance dans la dynamique communautaire et sociale : s",
    "source": "lieuxCulturels"
  },
  {
    "id": 10,
    "title": "Bibliothèque Maisonneuve",
    "category": {
      "fr": "Bibliothèque",
      "en": "Library"
    },
    "borough": null,
    "location": {
      "lat": 45.550623,
      "lng": -73.540628
    },
    "description": "Bibliothèque  Municipale 514 872-4213",
    "source": ""
  },
  {
    "id": 11,
    "title": "Bibliothèque de Mercier",
    "category": {
      "fr": "Bibliothèque",
      "en": "Library"
    },
    "borough": null,
    "location": {
      "lat": 45.595374,
      "lng": -73.5238789
    },
    "description": "Bibliothèque  Municipale 514 872-8738",
    "source": ""
  },
  {
    "id": 12,
    "title": "Bibliothèque Mordecai-Richler",
    "category": {
      "fr": "Bibliothèque",
      "en": "Library"
    },
    "borough": null,
    "location": {
      "lat": 45.5215292,
      "lng": -73.6016487
    },
    "description": "Bibliothèque  Municipale 514 872-2141",
    "source": ""
  },
  {
    "id": 13,
    "title": "Bibliothèque du Plateau Mont-Royal",
    "category": {
      "fr": "Bibliothèque",
      "en": "Library"
    },
    "borough": null,
    "location": {
      "lat": 45.5248196,
      "lng": -73.5823666
    },
    "description": "Bibliothèque  Municipale 514 872-2270",
    "source": ""
  },
  {
    "id": 14,
    "title": "Bibliothèque de Rivière-des-Prairies",
    "category": {
      "fr": "Bibliothèque",
      "en": "Library"
    },
    "borough": null,
    "location": {
      "lat": 45.6497644,
      "lng": -73.5789715
    },
    "description": "Bibliothèque  Municipale 514 872-9425",
    "source": ""
  },
  {
    "id": 15,
    "title": "Bibliothèque de La Petite-Patrie",
    "category": {
      "fr": "Bibliothèque",
      "en": "Library"
    },
    "borough": "Rosemont - La Petite-Patrie",
    "location": {
      "lat": 45.5473848,
      "lng": -73.5982557
    },
    "description": " Cet édifice aux multiples fonctions a été construit en 1931 pour accueillir une salle de spectacle, un poste de police et une caserne de pompiers. En 1950, la salle de spectacle devient l'hô",
    "source": "lieuxCulturels"
  },
  {
    "id": 16,
    "title": "Bibliothèque de Rosemont",
    "category": {
      "fr": "Bibliothèque",
      "en": "Library"
    },
    "borough": null,
    "location": {
      "lat": 45.551841,
      "lng": -73.582255
    },
    "description": "Bibliothèque  Municipale 514 872-4701",
    "source": ""
  },
  {
    "id": 17,
    "title": "Bibliothèque Georges-Vanier",
    "category": {
      "fr": "Bibliothèque",
      "en": "Library"
    },
    "borough": null,
    "location": {
      "lat": 45.4835816,
      "lng": -73.5751053
    },
    "description": "Bibliothèque  Municipale 514 872-2001",
    "source": ""
  },
  {
    "id": 18,
    "title": "Bibliothèque Marie-Uguay",
    "category": {
      "fr": "Bibliothèque",
      "en": "Library"
    },
    "borough": "Le Sud-Ouest",
    "location": {
      "lat": 45.4577169,
      "lng": -73.5955531
    },
    "description": " Sise à l'emplacement de l'ancien hôtel de ville de Ville-Émard, la bibliothèque a été baptisée en hommage à la jeune poétesse Marie Uguay, décédée du cancer en 1981, à l'âge de 26 ans. Cette",
    "source": "lieuxCulturels"
  },
  {
    "id": 19,
    "title": "Bibliothèque de Saint-Henri",
    "category": {
      "fr": "Bibliothèque",
      "en": "Library"
    },
    "borough": null,
    "location": {
      "lat": 45.4727582,
      "lng": -73.5889754
    },
    "description": "Bibliothèque  Municipale 514 872-2879",
    "source": ""
  },
  {
    "id": 20,
    "title": "Bibliothèque de Saint-Charles",
    "category": {
      "fr": "Bibliothèque",
      "en": "Library"
    },
    "borough": null,
    "location": {
      "lat": 45.4790485,
      "lng": -73.563753
    },
    "description": "Bibliothèque  Municipale 514 872-3092",
    "source": ""
  },
  {
    "id": 21,
    "title": "Bibliothèque Père-Ambroise",
    "category": {
      "fr": "Bibliothèque",
      "en": "Library"
    },
    "borough": null,
    "location": {
      "lat": 45.5230047,
      "lng": -73.5627968
    },
    "description": "Bibliothèque  Municipale 514 872-1633",
    "source": ""
  },
  {
    "id": 22,
    "title": "Bibliothèque Frontenac",
    "category": {
      "fr": "Bibliothèque",
      "en": "Library"
    },
    "borough": null,
    "location": {
      "lat": 45.532915,
      "lng": -73.551698
    },
    "description": "Bibliothèque  Municipale 514 872-7888",
    "source": ""
  },
  {
    "id": 23,
    "title": "Bibliothèque de Saint-Michel",
    "category": {
      "fr": "Bibliothèque",
      "en": "Library"
    },
    "borough": "Villeray - Saint-Michel - Parc-Extension",
    "location": {
      "lat": 45.562238,
      "lng": -73.6023914
    },
    "description": " Témoin architectural des années 1960, la bibliothèque de Saint-Michel, située dans le parc octogonal François-Perrault, a conservé plusieurs attributs de son style d'origine, dont le mur oue",
    "source": "lieuxCulturels"
  },
  {
    "id": 24,
    "title": "Bibliothèque de Belleville",
    "category": {
      "fr": "Bibliothèque",
      "en": "Library"
    },
    "borough": "Montréal-Nord",
    "location": {
      "lat": 45.5819491,
      "lng": -73.6421957
    },
    "description": " La bibliothèque de Belleville, qui a ouvert ses portes en 1973, vibre au coeur de la vie de son quartier. Elle est implantée dans le parc Ottawa, à proximité de nombreux autres services offe",
    "source": "lieuxCulturels"
  },
  {
    "id": 25,
    "title": "Bibliothèque de Roxboro",
    "category": {
      "fr": "Bibliothèque",
      "en": "Library"
    },
    "borough": null,
    "location": {
      "lat": 45.5027819,
      "lng": -73.814372
    },
    "description": "Bibliothèque  Municipale 514 684-8247",
    "source": ""
  },
  {
    "id": 26,
    "title": "Bibliothèque du Vieux-Saint-Laurent",
    "category": {
      "fr": "Bibliothèque",
      "en": "Library"
    },
    "borough": "Saint-Laurent",
    "location": {
      "lat": 45.5126898,
      "lng": -73.6765622
    },
    "description": " La bibliothèque actuelle a été inaugurée en 1965. En 1990, un nouvel aménagement paysager fait place à la sculpture \"Cailloudo\", du réputé Charles Daudelin (1920-2001). \"Cailloudo\" est un br",
    "source": "lieuxCulturels"
  },
  {
    "id": 27,
    "title": "Bibliothèque Jacqueline-De Repentigny",
    "category": {
      "fr": "Bibliothèque",
      "en": "Library"
    },
    "borough": null,
    "location": {
      "lat": 45.4485555,
      "lng": -73.5779042
    },
    "description": "Bibliothèque  Municipale 514 765-7172",
    "source": ""
  },
  {
    "id": 28,
    "title": "Bibliothèque L'Octogone",
    "category": {
      "fr": "Bibliothèque",
      "en": "Library"
    },
    "borough": "LaSalle",
    "location": {
      "lat": 45.4243396,
      "lng": -73.6234491
    },
    "description": " La bibliothèque de LaSalle, construite en 1984, tire son nom de sa forme architecturale : elle est composée de deux octogones dont l'un, le plus grand, abrite la collection des adultes et l'",
    "source": "lieuxCulturels"
  },
  {
    "id": 29,
    "title": "Bibliothèque de l'Île-des-Soeurs",
    "category": {
      "fr": "Bibliothèque",
      "en": "Library"
    },
    "borough": null,
    "location": {
      "lat": 45.4572042,
      "lng": -73.5473098
    },
    "description": "Bibliothèque  Municipale 514 765-7266",
    "source": ""
  },
  {
    "id": 30,
    "title": "Bibliothèque de Parc-Extension",
    "category": {
      "fr": "Bibliothèque",
      "en": "Library"
    },
    "borough": null,
    "location": {
      "lat": 45.53138,
      "lng": -73.6288579
    },
    "description": "Bibliothèque  Municipale 514 872-6071",
    "source": ""
  },
  {
    "id": 31,
    "title": "Bibliothèque de Saint-Léonard",
    "category": {
      "fr": "Bibliothèque",
      "en": "Library"
    },
    "borough": "Saint-Léonard",
    "location": {
      "lat": 45.586646,
      "lng": -73.5971925
    },
    "description": " La première bibliothèque de Saint-Léonard est inaugurée en 1966. Elle est alors située rue Jarry, dans une maison très modeste. En 1974, le nouvel hôtel de ville et la bibliothèque actuelle ",
    "source": "lieuxCulturels"
  },
  {
    "id": 32,
    "title": "Bibliothèque Robert-Bourassa",
    "category": {
      "fr": "Bibliothèque",
      "en": "Library"
    },
    "borough": "Outremont",
    "location": {
      "lat": 45.517746,
      "lng": -73.6085011
    },
    "description": " La bibliothèque Robert-Bourassa, située au 41 avenue Saint-Just, ouvre ses portes le 1er avril 1998. Le nouveau bâtiment, dont la superficie a été multipliée par sept comparativement à l'anc",
    "source": "lieuxCulturels"
  },
  {
    "id": 33,
    "title": "Bibliothèque de Barraute",
    "category": {
      "fr": "Bibliothèque",
      "en": "Library"
    },
    "borough": null,
    "location": {
      "lat": 48.4397967,
      "lng": -77.6368936
    },
    "description": "Bibliothèque  Affiliée au Réseau BIBLIO 819 734-6762",
    "source": ""
  },
  {
    "id": 34,
    "title": "Bibliothèque de Belcourt",
    "category": {
      "fr": "Bibliothèque",
      "en": "Library"
    },
    "borough": null,
    "location": {
      "lat": 48.4008859,
      "lng": -77.3543374
    },
    "description": "Bibliothèque  Affiliée au Réseau BIBLIO 819 737-4084",
    "source": ""
  },
  {
    "id": 35,
    "title": "Bibliothèque de Dupuy",
    "category": {
      "fr": "Bibliothèque",
      "en": "Library"
    },
    "borough": null,
    "location": {
      "lat": 48.8284173,
      "lng": -79.3550188
    },
    "description": "Bibliothèque  Affiliée au Réseau BIBLIO 819 783-2147",
    "source": ""
  },
  {
    "id": 36,
    "title": "Bibliothèque de Guérin",
    "category": {
      "fr": "Bibliothèque",
      "en": "Library"
    },
    "borough": null,
    "location": {
      "lat": 47.6599034,
      "lng": -79.3530144
    },
    "description": "Bibliothèque  Affiliée au Réseau BIBLIO 819 784-7024",
    "source": ""
  },
  {
    "id": 37,
    "title": "Bibliothèque de La Corne",
    "category": {
      "fr": "Bibliothèque",
      "en": "Library"
    },
    "borough": null,
    "location": {
      "lat": 48.3608161,
      "lng": -77.9953893
    },
    "description": "Bibliothèque  Affiliée au Réseau BIBLIO 819 799-2365",
    "source": ""
  },
  {
    "id": 38,
    "title": "Bibliothèque de La Reine",
    "category": {
      "fr": "Bibliothèque",
      "en": "Library"
    },
    "borough": null,
    "location": {
      "lat": 48.8682603,
      "lng": -79.5052377
    },
    "description": "Bibliothèque  Affiliée au Réseau BIBLIO 819 947-5271",
    "source": ""
  },
  {
    "id": 39,
    "title": "Bibliothèque de Landrienne",
    "category": {
      "fr": "Bibliothèque",
      "en": "Library"
    },
    "borough": null,
    "location": {
      "lat": 48.5472003,
      "lng": -77.9485356
    },
    "description": "Bibliothèque  Affiliée au Réseau BIBLIO 819 732-4357",
    "source": ""
  },
  {
    "id": 40,
    "title": "Bibliothèque de Laverlochère",
    "category": {
      "fr": "Bibliothèque",
      "en": "Library"
    },
    "borough": null,
    "location": {
      "lat": 47.4263728,
      "lng": -79.3075061
    },
    "description": "Bibliothèque  Affiliée au Réseau BIBLIO 819 765-2549",
    "source": ""
  },
  {
    "id": 41,
    "title": "Bibliothèque de Macamic",
    "category": {
      "fr": "Bibliothèque",
      "en": "Library"
    },
    "borough": null,
    "location": {
      "lat": 48.755231,
      "lng": -79.006423
    },
    "description": "Bibliothèque  Affiliée au Réseau BIBLIO 819 782-4604",
    "source": ""
  },
  {
    "id": 42,
    "title": "Bibliothèque de Malartic",
    "category": {
      "fr": "Bibliothèque",
      "en": "Library"
    },
    "borough": null,
    "location": {
      "lat": 48.133273,
      "lng": -78.1216967
    },
    "description": "Bibliothèque  Affiliée au Réseau BIBLIO 819 757-4449",
    "source": ""
  },
  {
    "id": 43,
    "title": "Bibliothèque de Colombourg",
    "category": {
      "fr": "Bibliothèque",
      "en": "Library"
    },
    "borough": null,
    "location": {
      "lat": 48.7489506,
      "lng": -79.0085846
    },
    "description": "Bibliothèque  Affiliée au Réseau BIBLIO 819 333-5783",
    "source": ""
  },
  {
    "id": 44,
    "title": "Bibliothèque de Preissac Sud",
    "category": {
      "fr": "Bibliothèque",
      "en": "Library"
    },
    "borough": null,
    "location": {
      "lat": 48.257667,
      "lng": -78.4421321
    },
    "description": "Bibliothèque  Affiliée au Réseau BIBLIO 819 759-4138",
    "source": ""
  },
  {
    "id": 45,
    "title": "Bibliothèque de Preissac-des-Rapides",
    "category": {
      "fr": "Bibliothèque",
      "en": "Library"
    },
    "borough": null,
    "location": {
      "lat": 48.4078007,
      "lng": -78.3659924
    },
    "description": "Bibliothèque  Affiliée au Réseau BIBLIO 819 732-4938",
    "source": ""
  },
  {
    "id": 46,
    "title": "Bibliothèque de Cléricy",
    "category": {
      "fr": "Bibliothèque",
      "en": "Library"
    },
    "borough": null,
    "location": {
      "lat": 48.3649196,
      "lng": -78.8671795
    },
    "description": "Bibliothèque  Affiliée au Réseau BIBLIO 819 797-7110",
    "source": ""
  },
  {
    "id": 47,
    "title": "Bibliothèque de Cloutier",
    "category": {
      "fr": "Bibliothèque",
      "en": "Library"
    },
    "borough": null,
    "location": {
      "lat": 48.0097833,
      "lng": -79.1503965
    },
    "description": "Bibliothèque  Affiliée au Réseau BIBLIO 819 797-8613",
    "source": ""
  },
  {
    "id": 48,
    "title": "Bibliothèque de Bellecombe",
    "category": {
      "fr": "Bibliothèque",
      "en": "Library"
    },
    "borough": null,
    "location": {
      "lat": 48.0996013,
      "lng": -78.9404151
    },
    "description": "Bibliothèque  Affiliée au Réseau BIBLIO 819 797-8302",
    "source": ""
  },
  {
    "id": 49,
    "title": "Bibliothèque de Saint-Dominique-du-Rosaire",
    "category": {
      "fr": "Bibliothèque",
      "en": "Library"
    },
    "borough": null,
    "location": {
      "lat": 48.7641407,
      "lng": -78.1149328
    },
    "description": "Bibliothèque  Affiliée au Réseau BIBLIO 819) 727-4144",
    "source": ""
  },
  {
    "id": 50,
    "title": "Bibliothèque de Sainte-Gertrude",
    "category": {
      "fr": "Bibliothèque",
      "en": "Library"
    },
    "borough": null,
    "location": {
      "lat": 48.5172404,
      "lng": -78.3619434
    },
    "description": "Bibliothèque  Affiliée au Réseau BIBLIO 819 727-2244",
    "source": ""
  },
  {
    "id": 51,
    "title": "Bibliothèque de Manneville",
    "category": {
      "fr": "Bibliothèque",
      "en": "Library"
    },
    "borough": null,
    "location": {
      "lat": 48.5470631,
      "lng": -78.4388713
    },
    "description": "Bibliothèque  Affiliée au Réseau BIBLIO 819 442-2617",
    "source": ""
  },
  {
    "id": 52,
    "title": "Bibliothèque de Sainte-Hélène-de-Mancebourg",
    "category": {
      "fr": "Bibliothèque",
      "en": "Library"
    },
    "borough": null,
    "location": {
      "lat": 48.6907792,
      "lng": -79.239552
    },
    "description": "Bibliothèque  Affiliée au Réseau BIBLIO 819 333-4609",
    "source": ""
  },
  {
    "id": 53,
    "title": "Bibliothèque d'Auclair",
    "category": {
      "fr": "Bibliothèque",
      "en": "Library"
    },
    "borough": null,
    "location": {
      "lat": 47.7282058,
      "lng": -68.6434448
    },
    "description": "Bibliothèque  Affiliée au Réseau BIBLIO 418 899-2834 poste 226",
    "source": ""
  },
  {
    "id": 54,
    "title": "Bibliothèque de Biencourt",
    "category": {
      "fr": "Bibliothèque",
      "en": "Library"
    },
    "borough": null,
    "location": {
      "lat": 47.9377361,
      "lng": -68.6087648
    },
    "description": "Bibliothèque  Affiliée au Réseau BIBLIO 418 499-2423",
    "source": ""
  },
  {
    "id": 55,
    "title": "Bibliothèque de Cabano",
    "category": {
      "fr": "Bibliothèque",
      "en": "Library"
    },
    "borough": null,
    "location": {
      "lat": 47.6826808,
      "lng": -68.8833734
    },
    "description": "Bibliothèque  Affiliée au Réseau BIBLIO 418 854-5568 poste 200",
    "source": ""
  },
  {
    "id": 56,
    "title": "Bibliothèque scolaire Gérard Collin",
    "category": {
      "fr": "Bibliothèque",
      "en": "Library"
    },
    "borough": null,
    "location": {
      "lat": 47.6813334,
      "lng": -68.881945
    },
    "description": "Bibliothèque  Affiliée au Réseau BIBLIO 418 854-2217",
    "source": ""
  },
  {
    "id": 57,
    "title": "Bibliothèque de Saint-Georges-de-Cacouna",
    "category": {
      "fr": "Bibliothèque",
      "en": "Library"
    },
    "borough": null,
    "location": {
      "lat": 47.9168776,
      "lng": -69.499707
    },
    "description": "Bibliothèque  Affiliée au Réseau BIBLIO 418 860-2651",
    "source": ""
  },
  {
    "id": 58,
    "title": "Bibliothèque de Causapscal",
    "category": {
      "fr": "Bibliothèque",
      "en": "Library"
    },
    "borough": null,
    "location": {
      "lat": 48.7199165,
      "lng": -67.8944474
    },
    "description": "Bibliothèque  Affiliée au Réseau BIBLIO 418 756-3522",
    "source": ""
  },
  {
    "id": 59,
    "title": "Bibliothèque d'Esprit-Saint",
    "category": {
      "fr": "Bibliothèque",
      "en": "Library"
    },
    "borough": null,
    "location": {
      "lat": 48.0667535,
      "lng": -68.5643484
    },
    "description": "Bibliothèque  Affiliée au Réseau BIBLIO 418 779-3116",
    "source": ""
  },
  {
    "id": 60,
    "title": "Bibliothèque de La Pocatière",
    "category": {
      "fr": "Bibliothèque",
      "en": "Library"
    },
    "borough": null,
    "location": {
      "lat": 47.3698197,
      "lng": -70.0320616
    },
    "description": "Bibliothèque  Affiliée au Réseau BIBLIO 418 856-3394 poste 118",
    "source": ""
  },
  {
    "id": 61,
    "title": "Bibliothèque de La Rédemption",
    "category": {
      "fr": "Bibliothèque",
      "en": "Library"
    },
    "borough": null,
    "location": {
      "lat": 48.444128,
      "lng": -67.8776695
    },
    "description": "Bibliothèque  Affiliée au Réseau BIBLIO 418 776-2336",
    "source": ""
  },
  {
    "id": 62,
    "title": "Bibliothèque Le Bic",
    "category": {
      "fr": "Bibliothèque",
      "en": "Library"
    },
    "borough": null,
    "location": {
      "lat": 48.3724093,
      "lng": -68.7119934
    },
    "description": "Bibliothèque  Affiliée au Réseau BIBLIO 418 736-5325",
    "source": ""
  },
  {
    "id": 63,
    "title": "Bibliothèque de Lejeune",
    "category": {
      "fr": "Bibliothèque",
      "en": "Library"
    },
    "borough": null,
    "location": {
      "lat": 47.7677135,
      "lng": -68.5755741
    },
    "description": "Bibliothèque  Affiliée au Réseau BIBLIO 418 855-2428 poste 6",
    "source": ""
  },
  {
    "id": 64,
    "title": "Bibliothèque de L'Isle-Verte",
    "category": {
      "fr": "Bibliothèque",
      "en": "Library"
    },
    "borough": null,
    "location": {
      "lat": 48.0150341,
      "lng": -69.3360219
    },
    "description": "Bibliothèque  Affiliée au Réseau BIBLIO 418 898-2812",
    "source": ""
  },
  {
    "id": 65,
    "title": "Bibliothèque de Notre-Dame-des-Sept-Douleurs",
    "category": {
      "fr": "Bibliothèque",
      "en": "Library"
    },
    "borough": null,
    "location": {
      "lat": 48.021462,
      "lng": -69.4352959
    },
    "description": "Bibliothèque  Affiliée au Réseau BIBLIO 418 898-3451",
    "source": ""
  },
  {
    "id": 66,
    "title": "Bibliothèque de Packington",
    "category": {
      "fr": "Bibliothèque",
      "en": "Library"
    },
    "borough": null,
    "location": {
      "lat": 47.4904976,
      "lng": -68.7870489
    },
    "description": "Bibliothèque  Affiliée au Réseau BIBLIO 418 853-5362",
    "source": ""
  },
  {
    "id": 67,
    "title": "Bibliothèque de Padoue",
    "category": {
      "fr": "Bibliothèque",
      "en": "Library"
    },
    "borough": null,
    "location": {
      "lat": 48.5791365,
      "lng": -67.9881121
    },
    "description": "Bibliothèque  Affiliée au Réseau BIBLIO 418 775-8188",
    "source": ""
  },
  {
    "id": 68,
    "title": "Bibliothèque Le Grenier aux Livres",
    "category": {
      "fr": "Bibliothèque",
      "en": "Library"
    },
    "borough": null,
    "location": {
      "lat": 47.4884139,
      "lng": -69.2808025
    },
    "description": "Bibliothèque  Affiliée au Réseau BIBLIO 418 859-3424",
    "source": ""
  },
  {
    "id": 69,
    "title": "Bibliothèque de Price",
    "category": {
      "fr": "Bibliothèque",
      "en": "Library"
    },
    "borough": null,
    "location": {
      "lat": 48.6032298,
      "lng": -68.1256843
    },
    "description": "Bibliothèque  Affiliée au Réseau BIBLIO 418 775-5596",
    "source": ""
  },
  {
    "id": 70,
    "title": "Bibliothèque de Rivière-Bleue",
    "category": {
      "fr": "Bibliothèque",
      "en": "Library"
    },
    "borough": null,
    "location": {
      "lat": 47.4356933,
      "lng": -69.0423989
    },
    "description": "Bibliothèque  Affiliée au Réseau BIBLIO 418 893-5559",
    "source": ""
  },
  {
    "id": 71,
    "title": "Bibliothèque de Rivière-Ouelle",
    "category": {
      "fr": "Bibliothèque",
      "en": "Library"
    },
    "borough": null,
    "location": {
      "lat": 47.4329415,
      "lng": -70.0156118
    },
    "description": "Bibliothèque  Affiliée au Réseau BIBLIO ",
    "source": ""
  },
  {
    "id": 72,
    "title": "Bibliothèque de Saint-Antonin",
    "category": {
      "fr": "Bibliothèque",
      "en": "Library"
    },
    "borough": null,
    "location": {
      "lat": 47.7640389,
      "lng": -69.4757572
    },
    "description": "Bibliothèque  Affiliée au Réseau BIBLIO 418 867-2353",
    "source": ""
  },
  {
    "id": 73,
    "title": "Bibliothèque de Saint-Arsène",
    "category": {
      "fr": "Bibliothèque",
      "en": "Library"
    },
    "borough": null,
    "location": {
      "lat": 47.9134796,
      "lng": -69.4341642
    },
    "description": "Bibliothèque  Affiliée au Réseau BIBLIO 418 867-2205",
    "source": ""
  },
  {
    "id": 74,
    "title": "Bibliothèque des Brulots",
    "category": {
      "fr": "Bibliothèque",
      "en": "Library"
    },
    "borough": null,
    "location": {
      "lat": 47.456696,
      "lng": -69.7536503
    },
    "description": "Bibliothèque  Affiliée au Réseau BIBLIO 418 492-5281",
    "source": ""
  },
  {
    "id": 75,
    "title": "Bibliothèque de Saint-Charles-Garnier",
    "category": {
      "fr": "Bibliothèque",
      "en": "Library"
    },
    "borough": null,
    "location": {
      "lat": 48.3260154,
      "lng": -68.0181288
    },
    "description": "Bibliothèque  Affiliée au Réseau BIBLIO 418 798-4305",
    "source": ""
  },
  {
    "id": 76,
    "title": "Bibliothèque de Saint-Clément",
    "category": {
      "fr": "Bibliothèque",
      "en": "Library"
    },
    "borough": null,
    "location": {
      "lat": 47.923486,
      "lng": -69.0966813
    },
    "description": "Bibliothèque  Affiliée au Réseau BIBLIO 418 963-2258",
    "source": ""
  },
  {
    "id": 77,
    "title": "Bibliothèque de Saint-Cléophas",
    "category": {
      "fr": "Bibliothèque",
      "en": "Library"
    },
    "borough": null,
    "location": {
      "lat": 48.4895341,
      "lng": -67.7483833
    },
    "description": "Bibliothèque  Affiliée au Réseau BIBLIO 418 536-3212",
    "source": ""
  },
  {
    "id": 78,
    "title": "Bibliothèque de Saint-Cyprien",
    "category": {
      "fr": "Bibliothèque",
      "en": "Library"
    },
    "borough": null,
    "location": {
      "lat": 47.8978101,
      "lng": -69.0219077
    },
    "description": "Bibliothèque  Affiliée au Réseau BIBLIO 418 963-1887",
    "source": ""
  },
  {
    "id": 79,
    "title": "Bibliothèque de Saint-Damase",
    "category": {
      "fr": "Bibliothèque",
      "en": "Library"
    },
    "borough": null,
    "location": {
      "lat": 48.6613493,
      "lng": -67.8269865
    },
    "description": "Bibliothèque  Affiliée au Réseau BIBLIO ",
    "source": ""
  },
  {
    "id": 80,
    "title": "Bibliothèque de Saint-Denis",
    "category": {
      "fr": "Bibliothèque",
      "en": "Library"
    },
    "borough": null,
    "location": {
      "lat": 47.5134536,
      "lng": -69.9524763
    },
    "description": "Bibliothèque  Affiliée au Réseau BIBLIO 418 498-2968",
    "source": ""
  },
  {
    "id": 81,
    "title": "Bibliothèque de Sainte-Angèle-de-Mérici",
    "category": {
      "fr": "Bibliothèque",
      "en": "Library"
    },
    "borough": null,
    "location": {
      "lat": 48.5265682,
      "lng": -68.0825731
    },
    "description": "Bibliothèque  Affiliée au Réseau BIBLIO ",
    "source": ""
  },
  {
    "id": 82,
    "title": "Bibliothèque de Sainte-Flavie",
    "category": {
      "fr": "Bibliothèque",
      "en": "Library"
    },
    "borough": null,
    "location": {
      "lat": 48.6108451,
      "lng": -68.2294903
    },
    "description": "Bibliothèque  Affiliée au Réseau BIBLIO 418 775-7050",
    "source": ""
  },
  {
    "id": 83,
    "title": "Bibliothèque de Sainte-Florence",
    "category": {
      "fr": "Bibliothèque",
      "en": "Library"
    },
    "borough": null,
    "location": {
      "lat": 48.2628677,
      "lng": -67.2366553
    },
    "description": "Bibliothèque  Affiliée au Réseau BIBLIO 418 756-5079",
    "source": ""
  },
  {
    "id": 84,
    "title": "Bibliothèque de Sainte-Françoise",
    "category": {
      "fr": "Bibliothèque",
      "en": "Library"
    },
    "borough": null,
    "location": {
      "lat": 48.0935627,
      "lng": -69.0624548
    },
    "description": "Bibliothèque  Affiliée au Réseau BIBLIO 418 851-3878",
    "source": ""
  },
  {
    "id": 85,
    "title": "Bibliothèque de Sainte-Hélène",
    "category": {
      "fr": "Bibliothèque",
      "en": "Library"
    },
    "borough": null,
    "location": {
      "lat": 47.5874548,
      "lng": -69.7262871
    },
    "description": "Bibliothèque  Affiliée au Réseau BIBLIO 418 492-3819",
    "source": ""
  },
  {
    "id": 86,
    "title": "Bibliothèque de Sainte-Irène",
    "category": {
      "fr": "Bibliothèque",
      "en": "Library"
    },
    "borough": null,
    "location": {
      "lat": 48.4356341,
      "lng": -67.5952305
    },
    "description": "Bibliothèque  Affiliée au Réseau BIBLIO 418 629-5705",
    "source": ""
  },
  {
    "id": 87,
    "title": "Bibliothèque de Sainte-Jeanne-D'Arc",
    "category": {
      "fr": "Bibliothèque",
      "en": "Library"
    },
    "borough": null,
    "location": {
      "lat": 48.4929131,
      "lng": -67.9627884
    },
    "description": "Bibliothèque  Affiliée au Réseau BIBLIO 418 776-5814",
    "source": ""
  },
  {
    "id": 88,
    "title": "Bibliothèque de Saint-Éloi",
    "category": {
      "fr": "Bibliothèque",
      "en": "Library"
    },
    "borough": null,
    "location": {
      "lat": 48.040212,
      "lng": -69.2241296
    },
    "description": "Bibliothèque  Affiliée au Réseau BIBLIO ",
    "source": ""
  },
  {
    "id": 89,
    "title": "Bibliothèque de Sainte-Luce",
    "category": {
      "fr": "Bibliothèque",
      "en": "Library"
    },
    "borough": null,
    "location": {
      "lat": 48.5462275,
      "lng": -68.3956088
    },
    "description": "Bibliothèque  Affiliée au Réseau BIBLIO 418 739-3393",
    "source": ""
  },
  {
    "id": 90,
    "title": "Bibliothèque de Luceville",
    "category": {
      "fr": "Bibliothèque",
      "en": "Library"
    },
    "borough": null,
    "location": {
      "lat": 48.5304937,
      "lng": -68.3440194
    },
    "description": "Bibliothèque  Affiliée au Réseau BIBLIO 418 739-3534",
    "source": ""
  },
  {
    "id": 91,
    "title": "Bibliothèque de Saint-Elzéar",
    "category": {
      "fr": "Bibliothèque",
      "en": "Library"
    },
    "borough": null,
    "location": {
      "lat": 47.5928367,
      "lng": -69.0949075
    },
    "description": "Bibliothèque  Affiliée au Réseau BIBLIO ",
    "source": ""
  },
  {
    "id": 92,
    "title": "Bibliothèque de Sainte-Marguerite",
    "category": {
      "fr": "Bibliothèque",
      "en": "Library"
    },
    "borough": null,
    "location": {
      "lat": 48.3317079,
      "lng": -67.0704292
    },
    "description": "Bibliothèque  Affiliée au Réseau BIBLIO ",
    "source": ""
  },
  {
    "id": 93,
    "title": "Bibliothèque de Sainte-Paule",
    "category": {
      "fr": "Bibliothèque",
      "en": "Library"
    },
    "borough": null,
    "location": {
      "lat": 48.6585609,
      "lng": -67.556436
    },
    "description": "Bibliothèque  Affiliée au Réseau BIBLIO 418 737-1378",
    "source": ""
  },
  {
    "id": 94,
    "title": "Bibliothèque de Sainte-Rita",
    "category": {
      "fr": "Bibliothèque",
      "en": "Library"
    },
    "borough": null,
    "location": {
      "lat": 47.9518577,
      "lng": -68.9092617
    },
    "description": "Bibliothèque  Affiliée au Réseau BIBLIO ",
    "source": ""
  },
  {
    "id": 95,
    "title": "Bibliothèque de Saint-Eusèbe",
    "category": {
      "fr": "Bibliothèque",
      "en": "Library"
    },
    "borough": null,
    "location": {
      "lat": 47.5429035,
      "lng": -68.9125552
    },
    "description": "Bibliothèque  Affiliée au Réseau BIBLIO 418 899-0150",
    "source": ""
  },
  {
    "id": 96,
    "title": "Bibliothèque de Saint-Fabien",
    "category": {
      "fr": "Bibliothèque",
      "en": "Library"
    },
    "borough": null,
    "location": {
      "lat": 48.2940269,
      "lng": -68.8668816
    },
    "description": "Bibliothèque  Affiliée au Réseau BIBLIO 418 869-2602",
    "source": ""
  },
  {
    "id": 97,
    "title": "Bibliothèque Le Bouquinier",
    "category": {
      "fr": "Bibliothèque",
      "en": "Library"
    },
    "borough": null,
    "location": {
      "lat": 48.422003,
      "lng": -68.1751843
    },
    "description": "Bibliothèque  Affiliée au Réseau BIBLIO 418 798-8310",
    "source": ""
  },
  {
    "id": 98,
    "title": "Bibliothèque de Saint-Gabriel-Lalemant",
    "category": {
      "fr": "Bibliothèque",
      "en": "Library"
    },
    "borough": null,
    "location": {
      "lat": 47.3812008,
      "lng": -69.9262781
    },
    "description": "Bibliothèque  Affiliée au Réseau BIBLIO 418 852-1189",
    "source": ""
  },
  {
    "id": 99,
    "title": "Bibliothèque de Saint-Germain",
    "category": {
      "fr": "Bibliothèque",
      "en": "Library"
    },
    "borough": null,
    "location": {
      "lat": 47.5881101,
      "lng": -69.7964949
    },
    "description": "Bibliothèque  Affiliée au Réseau BIBLIO 418 492-5767",
    "source": ""
  },
  {
    "id": 100,
    "title": "Bibliothèque de Saint-Honoré-de-Témiscouata",
    "category": {
      "fr": "Bibliothèque",
      "en": "Library"
    },
    "borough": null,
    "location": {
      "lat": 47.7066319,
      "lng": -69.1341334
    },
    "description": "Bibliothèque  Affiliée au Réseau BIBLIO 418 497-3996",
    "source": ""
  },
  {
    "id": 101,
    "title": "Biblio La Source",
    "category": {
      "fr": "Bibliothèque",
      "en": "Library"
    },
    "borough": null,
    "location": {
      "lat": 47.8157434,
      "lng": -69.1477673
    },
    "description": "Bibliothèque  Affiliée au Réseau BIBLIO 418 497-1187",
    "source": ""
  },
  {
    "id": 102,
    "title": "Bibliothèque de Saint-Jean-de-Dieu",
    "category": {
      "fr": "Bibliothèque",
      "en": "Library"
    },
    "borough": null,
    "location": {
      "lat": 48.0007644,
      "lng": -69.0465456
    },
    "description": "Bibliothèque  Affiliée au Réseau BIBLIO 418 963-3529 poste 2",
    "source": ""
  },
  {
    "id": 103,
    "title": "Bibliothèque de Saint-Jean-de-la-Lande",
    "category": {
      "fr": "Bibliothèque",
      "en": "Library"
    },
    "borough": null,
    "location": {
      "lat": 47.4280541,
      "lng": -68.682496
    },
    "description": "Bibliothèque  Affiliée au Réseau BIBLIO 418 853-3703",
    "source": ""
  },
  {
    "id": 104,
    "title": "Bibliothèque de Saint-Joseph-de-Kamouraska",
    "category": {
      "fr": "Bibliothèque",
      "en": "Library"
    },
    "borough": null,
    "location": {
      "lat": 47.610746,
      "lng": -69.6420834
    },
    "description": "Bibliothèque  Affiliée au Réseau BIBLIO 418 493-2658",
    "source": ""
  },
  {
    "id": 105,
    "title": "Bibliothèque de Saint-Joseph-de-Lepage",
    "category": {
      "fr": "Bibliothèque",
      "en": "Library"
    },
    "borough": null,
    "location": {
      "lat": 48.577427,
      "lng": -68.166491
    },
    "description": "Bibliothèque  Affiliée au Réseau BIBLIO 418 775-4607",
    "source": ""
  },
  {
    "id": 106,
    "title": "Bibliothèque Lots Renversés",
    "category": {
      "fr": "Bibliothèque",
      "en": "Library"
    },
    "borough": null,
    "location": {
      "lat": 47.8347721,
      "lng": -68.6883816
    },
    "description": "Bibliothèque  Affiliée au Réseau BIBLIO 418 899-0375",
    "source": ""
  },
  {
    "id": 107,
    "title": "Bibliothèque de Saint-Juste-du-Lac",
    "category": {
      "fr": "Bibliothèque",
      "en": "Library"
    },
    "borough": null,
    "location": {
      "lat": 47.6529295,
      "lng": -68.7558992
    },
    "description": "Bibliothèque  Affiliée au Réseau BIBLIO 418 899-0374",
    "source": ""
  },
  {
    "id": 108,
    "title": "Bibliothèque de Saint-Léon-le-Grand",
    "category": {
      "fr": "Bibliothèque",
      "en": "Library"
    },
    "borough": null,
    "location": {
      "lat": 48.3818821,
      "lng": -67.5030447
    },
    "description": "Bibliothèque  Affiliée au Réseau BIBLIO ",
    "source": ""
  },
  {
    "id": 109,
    "title": "Bibliothèque de Saint-Louis-du-Ha! Ha!",
    "category": {
      "fr": "Bibliothèque",
      "en": "Library"
    },
    "borough": null,
    "location": {
      "lat": 47.6716563,
      "lng": -68.9790899
    },
    "description": "Bibliothèque  Affiliée au Réseau BIBLIO 418 854-4031",
    "source": ""
  },
  {
    "id": 110,
    "title": "Bibliothèque de Saint-Marcellin",
    "category": {
      "fr": "Bibliothèque",
      "en": "Library"
    },
    "borough": null,
    "location": {
      "lat": 48.2991742,
      "lng": -68.3571925
    },
    "description": "Bibliothèque  Affiliée au Réseau BIBLIO 418 798-8164",
    "source": ""
  },
  {
    "id": 111,
    "title": "Bibliothèque de Saint-Mathieu-de-Rioux",
    "category": {
      "fr": "Bibliothèque",
      "en": "Library"
    },
    "borough": null,
    "location": {
      "lat": 48.1841911,
      "lng": -68.984343
    },
    "description": "Bibliothèque  Affiliée au Réseau BIBLIO ",
    "source": ""
  },
  {
    "id": 112,
    "title": "Bibliothèque de Saint-Médard",
    "category": {
      "fr": "Bibliothèque",
      "en": "Library"
    },
    "borough": null,
    "location": {
      "lat": 48.0479599,
      "lng": -68.8973603
    },
    "description": "Bibliothèque  Affiliée au Réseau BIBLIO 418 963-1588",
    "source": ""
  },
  {
    "id": 113,
    "title": "Bibliothèque de Saint-Modeste",
    "category": {
      "fr": "Bibliothèque",
      "en": "Library"
    },
    "borough": null,
    "location": {
      "lat": 47.830824,
      "lng": -69.4046883
    },
    "description": "Bibliothèque  Affiliée au Réseau BIBLIO 418 867-2352",
    "source": ""
  },
  {
    "id": 114,
    "title": "Bibliothèque La Bouquinerie",
    "category": {
      "fr": "Bibliothèque",
      "en": "Library"
    },
    "borough": null,
    "location": {
      "lat": 48.286856,
      "lng": -68.437968
    },
    "description": "Bibliothèque  Affiliée au Réseau BIBLIO 418 735-2247",
    "source": ""
  },
  {
    "id": 115,
    "title": "Bibliothèque de Saint-Noël",
    "category": {
      "fr": "Bibliothèque",
      "en": "Library"
    },
    "borough": null,
    "location": {
      "lat": 48.5843213,
      "lng": -67.8357296
    },
    "description": "Bibliothèque  Affiliée au Réseau BIBLIO 418 776-2549",
    "source": ""
  },
  {
    "id": 116,
    "title": "Bibliothèque de Saint-Pascal",
    "category": {
      "fr": "Bibliothèque",
      "en": "Library"
    },
    "borough": null,
    "location": {
      "lat": 47.5303213,
      "lng": -69.8012616
    },
    "description": "Bibliothèque  Affiliée au Réseau BIBLIO 418 492-1089",
    "source": ""
  },
  {
    "id": 117,
    "title": "Bibliothèque de Saint-Paul-de-la-Croix",
    "category": {
      "fr": "Bibliothèque",
      "en": "Library"
    },
    "borough": null,
    "location": {
      "lat": 47.9528398,
      "lng": -69.1940997
    },
    "description": "Bibliothèque  Affiliée au Réseau BIBLIO 418 898-3095",
    "source": ""
  },
  {
    "id": 118,
    "title": "Bibliothèque de Saint-Philippe-de-Néri",
    "category": {
      "fr": "Bibliothèque",
      "en": "Library"
    },
    "borough": null,
    "location": {
      "lat": 47.4653363,
      "lng": -69.8880056
    },
    "description": "Bibliothèque  Affiliée au Réseau BIBLIO 418 498-3843",
    "source": ""
  },
  {
    "id": 119,
    "title": "Bibliothèque de Saint-Simon",
    "category": {
      "fr": "Bibliothèque",
      "en": "Library"
    },
    "borough": null,
    "location": {
      "lat": 48.200837,
      "lng": -69.0412845
    },
    "description": "Bibliothèque  Affiliée au Réseau BIBLIO ",
    "source": ""
  },
  {
    "id": 120,
    "title": "Bibliothèque de Saint-Valérien",
    "category": {
      "fr": "Bibliothèque",
      "en": "Library"
    },
    "borough": null,
    "location": {
      "lat": 48.3387459,
      "lng": -68.6567847
    },
    "description": "Bibliothèque  Affiliée au Réseau BIBLIO 418 736-8170",
    "source": ""
  },
  {
    "id": 121,
    "title": "Bibliothèque de Trois-Pistoles",
    "category": {
      "fr": "Bibliothèque",
      "en": "Library"
    },
    "borough": null,
    "location": {
      "lat": 48.1210594,
      "lng": -69.1731241
    },
    "description": "Bibliothèque  Affiliée au Réseau BIBLIO 418 851-2374",
    "source": ""
  },
  {
    "id": 122,
    "title": "Bibliothèque municipale de Cap-Santé",
    "category": {
      "fr": "Bibliothèque",
      "en": "Library"
    },
    "borough": null,
    "location": {
      "lat": 46.6705274,
      "lng": -71.7856452
    },
    "description": "Bibliothèque  Affiliée au Réseau BIBLIO 418 285-6891",
    "source": ""
  },
  {
    "id": 123,
    "title": "Bibliothèque La Chute de Mots",
    "category": {
      "fr": "Bibliothèque",
      "en": "Library"
    },
    "borough": null,
    "location": {
      "lat": 47.693638,
      "lng": -70.2207709
    },
    "description": "Bibliothèque  Affiliée au Réseau BIBLIO 418 439-2903",
    "source": ""
  },
  {
    "id": 124,
    "title": "Bibliothèque L'Ardoise (Grondines)",
    "category": {
      "fr": "Bibliothèque",
      "en": "Library"
    },
    "borough": null,
    "location": {
      "lat": 46.6270854,
      "lng": -71.9849173
    },
    "description": "Bibliothèque  Affiliée au Réseau BIBLIO 418 268-4375",
    "source": ""
  },
  {
    "id": 125,
    "title": "Bibliothèque Félix-Antoine-Savard",
    "category": {
      "fr": "Bibliothèque",
      "en": "Library"
    },
    "borough": null,
    "location": {
      "lat": 47.4787378,
      "lng": -70.3210413
    },
    "description": "Bibliothèque  Affiliée au Réseau BIBLIO 418 489-2990",
    "source": ""
  },
  {
    "id": 126,
    "title": "Bibliothèque Pour la suite du monde",
    "category": {
      "fr": "Bibliothèque",
      "en": "Library"
    },
    "borough": null,
    "location": {
      "lat": 47.4196645,
      "lng": -70.3846835
    },
    "description": "Bibliothèque  Affiliée au Réseau BIBLIO 418 760-1062",
    "source": ""
  },
  {
    "id": 127,
    "title": "Bibliothèque La Girouette",
    "category": {
      "fr": "Bibliothèque",
      "en": "Library"
    },
    "borough": null,
    "location": {
      "lat": 47.6644304,
      "lng": -70.3913176
    },
    "description": "Bibliothèque  Affiliée au Réseau BIBLIO 418 489-2011",
    "source": ""
  },
  {
    "id": 128,
    "title": "Bibliothèque Auguste-Honoré-Gosselin",
    "category": {
      "fr": "Bibliothèque",
      "en": "Library"
    },
    "borough": null,
    "location": {
      "lat": 46.7524508,
      "lng": -71.6948414
    },
    "description": "Bibliothèque  Municipale 418 873-4067",
    "source": ""
  },
  {
    "id": 129,
    "title": "Bibliothèque La Découverte (Notre-Dame-de-Portneuf)",
    "category": {
      "fr": "Bibliothèque",
      "en": "Library"
    },
    "borough": null,
    "location": {
      "lat": 46.7102855,
      "lng": -71.8888656
    },
    "description": "Bibliothèque  Affiliée au Réseau BIBLIO 418 286-4452",
    "source": ""
  },
  {
    "id": 130,
    "title": "Bibliothèque La Plume d'Or",
    "category": {
      "fr": "Bibliothèque",
      "en": "Library"
    },
    "borough": null,
    "location": {
      "lat": 47.6828438,
      "lng": -70.3113935
    },
    "description": "Bibliothèque  Affiliée au Réseau BIBLIO 418 439-2229",
    "source": ""
  },
  {
    "id": 131,
    "title": "Bibliothèque Au Fil des Mots",
    "category": {
      "fr": "Bibliothèque",
      "en": "Library"
    },
    "borough": null,
    "location": {
      "lat": 46.7561968,
      "lng": -71.826268
    },
    "description": "Bibliothèque  Affiliée au Réseau BIBLIO 418 329-2858",
    "source": ""
  },
  {
    "id": 132,
    "title": "Bibliothèque Alphonse-Paré",
    "category": {
      "fr": "Bibliothèque",
      "en": "Library"
    },
    "borough": null,
    "location": {
      "lat": 47.0162975,
      "lng": -70.9474296
    },
    "description": "Bibliothèque  Affiliée au Réseau BIBLIO 418 827-2992",
    "source": ""
  },
  {
    "id": 133,
    "title": "Bibliothèque municipale de Sainte-Famille / Saint-François",
    "category": {
      "fr": "Bibliothèque",
      "en": "Library"
    },
    "borough": null,
    "location": {
      "lat": 46.9655088,
      "lng": -70.9669953
    },
    "description": "Bibliothèque  Affiliée au Réseau BIBLIO 418 666-4666",
    "source": ""
  },
  {
    "id": 134,
    "title": "Bibliothèque Aux Sources",
    "category": {
      "fr": "Bibliothèque",
      "en": "Library"
    },
    "borough": null,
    "location": {
      "lat": 47.1180503,
      "lng": -70.8603207
    },
    "description": "Bibliothèque  Affiliée au Réseau BIBLIO 418 826-3540",
    "source": ""
  },
  {
    "id": 135,
    "title": "Bibliothèque municipale de Saint-Gabriel-de-Valcartier",
    "category": {
      "fr": "Bibliothèque",
      "en": "Library"
    },
    "borough": null,
    "location": {
      "lat": 46.9427489,
      "lng": -71.4747028
    },
    "description": "Bibliothèque  Affiliée au Réseau BIBLIO 418 844-4040",
    "source": ""
  },
  {
    "id": 136,
    "title": "Bibliothèque Adolphe-Basile-Routhier",
    "category": {
      "fr": "Bibliothèque",
      "en": "Library"
    },
    "borough": null,
    "location": {
      "lat": 47.5733776,
      "lng": -70.2097644
    },
    "description": "Bibliothèque  Affiliée au Réseau BIBLIO 418 620-5015",
    "source": ""
  },
  {
    "id": 137,
    "title": "Biblio GEDE-Livres",
    "category": {
      "fr": "Bibliothèque",
      "en": "Library"
    },
    "borough": null,
    "location": {
      "lat": 45.8526934,
      "lng": -70.642268
    },
    "description": "Bibliothèque  Affiliée au Réseau BIBLIO 418 582-3341",
    "source": ""
  },
  {
    "id": 138,
    "title": "Bibliothèque Oscar-Ferland",
    "category": {
      "fr": "Bibliothèque",
      "en": "Library"
    },
    "borough": null,
    "location": {
      "lat": 46.8888111,
      "lng": -71.0703545
    },
    "description": "Bibliothèque  Affiliée au Réseau BIBLIO 418 828-2855",
    "source": ""
  },
  {
    "id": 139,
    "title": "Bibliothèque Emma-Duclos",
    "category": {
      "fr": "Bibliothèque",
      "en": "Library"
    },
    "borough": null,
    "location": {
      "lat": 47.1376428,
      "lng": -70.775862
    },
    "description": "Bibliothèque  Affiliée au Réseau BIBLIO 418 823-2054",
    "source": ""
  },
  {
    "id": 140,
    "title": "Bibliothèque municipale de Shannon",
    "category": {
      "fr": "Bibliothèque",
      "en": "Library"
    },
    "borough": null,
    "location": {
      "lat": 46.8893603,
      "lng": -71.5192383
    },
    "description": "Bibliothèque  Municipale 418 844-1622",
    "source": ""
  },
  {
    "id": 141,
    "title": "Bibliothèque Jean-Luc-Grondin",
    "category": {
      "fr": "Bibliothèque",
      "en": "Library"
    },
    "borough": null,
    "location": {
      "lat": 46.9995804,
      "lng": -71.3687841
    },
    "description": "Bibliothèque  Municipale 418 848-2381",
    "source": ""
  },
  {
    "id": 142,
    "title": "Bibliothèque Guy-Laviolette",
    "category": {
      "fr": "Bibliothèque",
      "en": "Library"
    },
    "borough": null,
    "location": {
      "lat": 46.7564557,
      "lng": -72.2685884
    },
    "description": "Bibliothèque  Affiliée au Réseau BIBLIO 418 277-2124",
    "source": ""
  },
  {
    "id": 143,
    "title": "Bibliothèque d'Aston-Jonction",
    "category": {
      "fr": "Bibliothèque",
      "en": "Library"
    },
    "borough": null,
    "location": {
      "lat": 46.1685319,
      "lng": -72.2280102
    },
    "description": "Bibliothèque  Affiliée au Réseau BIBLIO ",
    "source": ""
  },
  {
    "id": 144,
    "title": "Bibliothèque de Chester-Est",
    "category": {
      "fr": "Bibliothèque",
      "en": "Library"
    },
    "borough": null,
    "location": {
      "lat": 46.0319915,
      "lng": -71.707794
    },
    "description": "Bibliothèque  Affiliée au Réseau BIBLIO ",
    "source": ""
  },
  {
    "id": 145,
    "title": "Bibliothèque de Chesterville",
    "category": {
      "fr": "Bibliothèque",
      "en": "Library"
    },
    "borough": null,
    "location": {
      "lat": 45.9620844,
      "lng": -71.8236531
    },
    "description": "Bibliothèque  Affiliée au Réseau BIBLIO 819 382-2997",
    "source": ""
  },
  {
    "id": 146,
    "title": "Bibliothèque de Fortierville",
    "category": {
      "fr": "Bibliothèque",
      "en": "Library"
    },
    "borough": null,
    "location": {
      "lat": 46.4864331,
      "lng": -72.0319787
    },
    "description": "Bibliothèque  Affiliée au Réseau BIBLIO 819 287-4309",
    "source": ""
  },
  {
    "id": 147,
    "title": "Bibliothèque de Laurierville",
    "category": {
      "fr": "Bibliothèque",
      "en": "Library"
    },
    "borough": null,
    "location": {
      "lat": 46.29677,
      "lng": -71.6567259
    },
    "description": "Bibliothèque  Affiliée au Réseau BIBLIO 819 365-4913",
    "source": ""
  },
  {
    "id": 148,
    "title": "Bibliothèque de l'Avenir (Joseph-Charles St-Amant)",
    "category": {
      "fr": "Bibliothèque",
      "en": "Library"
    },
    "borough": null,
    "location": {
      "lat": 45.7633377,
      "lng": -72.3051839
    },
    "description": "Bibliothèque  Affiliée au Réseau BIBLIO 819 394-2502",
    "source": ""
  },
  {
    "id": 149,
    "title": "Bibliothèque de Lefebvre",
    "category": {
      "fr": "Bibliothèque",
      "en": "Library"
    },
    "borough": null,
    "location": {
      "lat": 45.6589173,
      "lng": -72.4703519
    },
    "description": "Bibliothèque  Affiliée au Réseau BIBLIO 819 394-3354",
    "source": ""
  },
  {
    "id": 150,
    "title": "Bibliothèque de Lemieux",
    "category": {
      "fr": "Bibliothèque",
      "en": "Library"
    },
    "borough": null,
    "location": {
      "lat": 46.2952803,
      "lng": -72.1084738
    },
    "description": "Bibliothèque  Affiliée au Réseau BIBLIO ",
    "source": ""
  },
  {
    "id": 151,
    "title": "Bibliothèque de Lyster (Graziella-Ouellet)",
    "category": {
      "fr": "Bibliothèque",
      "en": "Library"
    },
    "borough": null,
    "location": {
      "lat": 46.3716279,
      "lng": -71.6155521
    },
    "description": "Bibliothèque  Affiliée au Réseau BIBLIO 819 389-5787",
    "source": ""
  },
  {
    "id": 152,
    "title": "Bibliothèque municipale de Nicolet",
    "category": {
      "fr": "Bibliothèque",
      "en": "Library"
    },
    "borough": null,
    "location": {
      "lat": 46.2255035,
      "lng": -72.6166132
    },
    "description": "Bibliothèque  Municipale 819 293-6007",
    "source": ""
  },
  {
    "id": 153,
    "title": "Bibliothèque de Norbertville",
    "category": {
      "fr": "Bibliothèque",
      "en": "Library"
    },
    "borough": null,
    "location": {
      "lat": 46.1066161,
      "lng": -71.8205027
    },
    "description": "Bibliothèque  Affiliée au Réseau BIBLIO 819 806-1147",
    "source": ""
  },
  {
    "id": 154,
    "title": "Bibliothèque de Notre-Dame-de-Ham",
    "category": {
      "fr": "Bibliothèque",
      "en": "Library"
    },
    "borough": null,
    "location": {
      "lat": 45.9068695,
      "lng": -71.7371469
    },
    "description": "Bibliothèque  Affiliée au Réseau BIBLIO 819 344-2192",
    "source": ""
  },
  {
    "id": 155,
    "title": "Bibliothèque de Notre-Dame-du-Bon-Conseil",
    "category": {
      "fr": "Bibliothèque",
      "en": "Library"
    },
    "borough": null,
    "location": {
      "lat": 46.0005732,
      "lng": -72.3442634
    },
    "description": "Bibliothèque  Affiliée au Réseau BIBLIO 819 336-2967",
    "source": ""
  },
  {
    "id": 156,
    "title": "Bibliothèque de Notre-Dame-de-Pierreville",
    "category": {
      "fr": "Bibliothèque",
      "en": "Library"
    },
    "borough": null,
    "location": {
      "lat": 46.1050842,
      "lng": -72.8790837
    },
    "description": "Bibliothèque  Affiliée au Réseau BIBLIO 450 568-2087",
    "source": ""
  },
  {
    "id": 157,
    "title": "Bibliothèque Madeleine-Bélanger",
    "category": {
      "fr": "Bibliothèque",
      "en": "Library"
    },
    "borough": null,
    "location": {
      "lat": 46.1706913,
      "lng": -71.8740403
    },
    "description": "Bibliothèque  Municipale ",
    "source": ""
  },
  {
    "id": 158,
    "title": "Bibliothèque de Saint-Bonaventure",
    "category": {
      "fr": "Bibliothèque",
      "en": "Library"
    },
    "borough": null,
    "location": {
      "lat": 45.9658097,
      "lng": -72.6795417
    },
    "description": "Bibliothèque  Affiliée au Réseau BIBLIO 819 396-1676",
    "source": ""
  },
  {
    "id": 159,
    "title": "Bibliothèque de Saint-Célestin (Claude-Bouchard)",
    "category": {
      "fr": "Bibliothèque",
      "en": "Library"
    },
    "borough": null,
    "location": {
      "lat": 46.2145545,
      "lng": -72.4337446
    },
    "description": "Bibliothèque  Affiliée au Réseau BIBLIO 819 229-3403",
    "source": ""
  },
  {
    "id": 160,
    "title": "Bibliothèque de Sainte-Cécile-de-Lévrard",
    "category": {
      "fr": "Bibliothèque",
      "en": "Library"
    },
    "borough": null,
    "location": {
      "lat": 46.4665626,
      "lng": -72.161101
    },
    "description": "Bibliothèque  Affiliée au Réseau BIBLIO 819 263-0368",
    "source": ""
  },
  {
    "id": 161,
    "title": "Bibliothèque de Sainte-Elizabeth-de-Warwick",
    "category": {
      "fr": "Bibliothèque",
      "en": "Library"
    },
    "borough": null,
    "location": {
      "lat": 45.9191786,
      "lng": -72.0820879
    },
    "description": "Bibliothèque  Affiliée au Réseau BIBLIO 819 358-2429",
    "source": ""
  },
  {
    "id": 162,
    "title": "Bibliothèque de Sainte-Françoise",
    "category": {
      "fr": "Bibliothèque",
      "en": "Library"
    },
    "borough": null,
    "location": {
      "lat": 46.4895722,
      "lng": -72.0209047
    },
    "description": "Bibliothèque  Affiliée au Réseau BIBLIO 819 287-5838",
    "source": ""
  },
  {
    "id": 163,
    "title": "Bibliothèque de Saint-Elphège (La Bouquinerie)",
    "category": {
      "fr": "Bibliothèque",
      "en": "Library"
    },
    "borough": null,
    "location": {
      "lat": 46.0552406,
      "lng": -72.7014053
    },
    "description": "Bibliothèque  Affiliée au Réseau BIBLIO 450 568-7339",
    "source": ""
  },
  {
    "id": 164,
    "title": "Bibliothèque de Sainte-Marie-de-Blandford",
    "category": {
      "fr": "Bibliothèque",
      "en": "Library"
    },
    "borough": null,
    "location": {
      "lat": 46.3236852,
      "lng": -72.1793304
    },
    "description": "Bibliothèque  Affiliée au Réseau BIBLIO 819 283-2127",
    "source": ""
  },
  {
    "id": 165,
    "title": "Bibliothèque de Sainte-Monique",
    "category": {
      "fr": "Bibliothèque",
      "en": "Library"
    },
    "borough": null,
    "location": {
      "lat": 46.1578478,
      "lng": -72.5370894
    },
    "description": "Bibliothèque  Affiliée au Réseau BIBLIO 819 289-2051",
    "source": ""
  },
  {
    "id": 166,
    "title": "Bibliothèque de Sainte-Séraphine",
    "category": {
      "fr": "Bibliothèque",
      "en": "Library"
    },
    "borough": null,
    "location": {
      "lat": 45.9209792,
      "lng": -72.1863281
    },
    "description": "Bibliothèque  Affiliée au Réseau BIBLIO 819 336-3222",
    "source": ""
  },
  {
    "id": 167,
    "title": "Bibliothèque de Sainte-Sophie-de-Lévrard",
    "category": {
      "fr": "Bibliothèque",
      "en": "Library"
    },
    "borough": null,
    "location": {
      "lat": 46.428643,
      "lng": -72.1095082
    },
    "description": "Bibliothèque  Affiliée au Réseau BIBLIO 819 288-0334",
    "source": ""
  },
  {
    "id": 168,
    "title": "Bibliothèque de Saint-Eugène",
    "category": {
      "fr": "Bibliothèque",
      "en": "Library"
    },
    "borough": null,
    "location": {
      "lat": 45.8065075,
      "lng": -72.7015838
    },
    "description": "Bibliothèque  Affiliée au Réseau BIBLIO 819 396-2332",
    "source": ""
  },
  {
    "id": 169,
    "title": "Bibliothèque de Saint-Ferdinand (Mille et une feuilles)",
    "category": {
      "fr": "Bibliothèque",
      "en": "Library"
    },
    "borough": null,
    "location": {
      "lat": 46.107353,
      "lng": -71.5724332
    },
    "description": "Bibliothèque  Affiliée au Réseau BIBLIO 418 428-9607",
    "source": ""
  },
  {
    "id": 170,
    "title": "Bibliothèque de Saint-Germain-de-Grantham (Le Signet)",
    "category": {
      "fr": "Bibliothèque",
      "en": "Library"
    },
    "borough": null,
    "location": {
      "lat": 45.8397739,
      "lng": -72.5705394
    },
    "description": "Bibliothèque  Affiliée au Réseau BIBLIO 819 395-2644",
    "source": ""
  },
  {
    "id": 171,
    "title": "Bibliothèque de Saint-Guillaume",
    "category": {
      "fr": "Bibliothèque",
      "en": "Library"
    },
    "borough": null,
    "location": {
      "lat": 45.8820347,
      "lng": -72.7660875
    },
    "description": "Bibliothèque  Affiliée au Réseau BIBLIO 819 396-3754",
    "source": ""
  },
  {
    "id": 172,
    "title": "Bibliothèque de Saint-Léonard-d'Aston (Lucille-M.-Desmarais)",
    "category": {
      "fr": "Bibliothèque",
      "en": "Library"
    },
    "borough": null,
    "location": {
      "lat": 46.1058694,
      "lng": -72.3767777
    },
    "description": "Bibliothèque  Affiliée au Réseau BIBLIO 819 399-3368",
    "source": ""
  },
  {
    "id": 173,
    "title": "Bibliothèque de Saint-Pie-de-Guire",
    "category": {
      "fr": "Bibliothèque",
      "en": "Library"
    },
    "borough": null,
    "location": {
      "lat": 46.0037038,
      "lng": -72.7466031
    },
    "description": "Bibliothèque  Affiliée au Réseau BIBLIO 450 784-0232",
    "source": ""
  },
  {
    "id": 174,
    "title": "Bibliothèque de Saint-Pierre-les-Becquets",
    "category": {
      "fr": "Bibliothèque",
      "en": "Library"
    },
    "borough": null,
    "location": {
      "lat": 46.5061779,
      "lng": -72.2034953
    },
    "description": "Bibliothèque  Affiliée au Réseau BIBLIO 819 263-0797",
    "source": ""
  },
  {
    "id": 175,
    "title": "Bibliothèque de Saints-Martyrs-Canadiens",
    "category": {
      "fr": "Bibliothèque",
      "en": "Library"
    },
    "borough": null,
    "location": {
      "lat": 45.8576753,
      "lng": -71.5334556
    },
    "description": "Bibliothèque  Affiliée au Réseau BIBLIO 819 344-5171",
    "source": ""
  },
  {
    "id": 176,
    "title": "Bibliothèque de Saint-Valère",
    "category": {
      "fr": "Bibliothèque",
      "en": "Library"
    },
    "borough": null,
    "location": {
      "lat": 46.0665508,
      "lng": -72.0972475
    },
    "description": "Bibliothèque  Affiliée au Réseau BIBLIO 819 353-3464",
    "source": ""
  },
  {
    "id": 177,
    "title": "Bibliothèque de Saint-Wenceslas",
    "category": {
      "fr": "Bibliothèque",
      "en": "Library"
    },
    "borough": null,
    "location": {
      "lat": 46.1671773,
      "lng": -72.326751
    },
    "description": "Bibliothèque  Affiliée au Réseau BIBLIO 819 224-4055",
    "source": ""
  },
  {
    "id": 178,
    "title": "Bibliothèque de Saint-Zéphirin-de-Courval",
    "category": {
      "fr": "Bibliothèque",
      "en": "Library"
    },
    "borough": null,
    "location": {
      "lat": 46.0592296,
      "lng": -72.6288296
    },
    "description": "Bibliothèque  Affiliée au Réseau BIBLIO 450 564-2401",
    "source": ""
  },
  {
    "id": 179,
    "title": "Bibliothèque de Tingwick",
    "category": {
      "fr": "Bibliothèque",
      "en": "Library"
    },
    "borough": null,
    "location": {
      "lat": 45.8791847,
      "lng": -71.9410823
    },
    "description": "Bibliothèque  Affiliée au Réseau BIBLIO 819 359-3225",
    "source": ""
  },
  {
    "id": 180,
    "title": "Bibliothèque de Wickham",
    "category": {
      "fr": "Bibliothèque",
      "en": "Library"
    },
    "borough": null,
    "location": {
      "lat": 45.7624088,
      "lng": -72.4992277
    },
    "description": "Bibliothèque  Affiliée au Réseau BIBLIO 819 398-6878",
    "source": ""
  },
  {
    "id": 181,
    "title": "Bibliothèque Madeleine-Doyon",
    "category": {
      "fr": "Bibliothèque",
      "en": "Library"
    },
    "borough": null,
    "location": {
      "lat": 46.2109906,
      "lng": -70.7786907
    },
    "description": "Bibliothèque  Municipale 418 774-9137",
    "source": ""
  },
  {
    "id": 182,
    "title": "Bibliothèque Luc-Lacourcière",
    "category": {
      "fr": "Bibliothèque",
      "en": "Library"
    },
    "borough": null,
    "location": {
      "lat": 46.8305527,
      "lng": -71.0115122
    },
    "description": "Bibliothèque  Affiliée au Réseau BIBLIO 418 837-2658",
    "source": ""
  },
  {
    "id": 183,
    "title": "Bibliothèque Léo-Pol-Morin",
    "category": {
      "fr": "Bibliothèque",
      "en": "Library"
    },
    "borough": null,
    "location": {
      "lat": 47.0374755,
      "lng": -70.4564835
    },
    "description": "Bibliothèque  Affiliée au Réseau BIBLIO 418 246-3037",
    "source": ""
  },
  {
    "id": 184,
    "title": "Bibliothèque La Bouquinerie (Dosquet)",
    "category": {
      "fr": "Bibliothèque",
      "en": "Library"
    },
    "borough": null,
    "location": {
      "lat": 46.4679749,
      "lng": -71.5302449
    },
    "description": "Bibliothèque  Affiliée au Réseau BIBLIO 418 415-1015",
    "source": ""
  },
  {
    "id": 185,
    "title": "Bibliothèque La Bouquinerie (East Broughton)",
    "category": {
      "fr": "Bibliothèque",
      "en": "Library"
    },
    "borough": null,
    "location": {
      "lat": 46.2191278,
      "lng": -71.0775159
    },
    "description": "Bibliothèque  Affiliée au Réseau BIBLIO 418 427-4900",
    "source": ""
  },
  {
    "id": 186,
    "title": "Bibliothèque L'Élan",
    "category": {
      "fr": "Bibliothèque",
      "en": "Library"
    },
    "borough": null,
    "location": {
      "lat": 46.3964368,
      "lng": -70.5044398
    },
    "description": "Bibliothèque  Affiliée au Réseau BIBLIO 418 625-5325",
    "source": ""
  },
  {
    "id": 187,
    "title": "Bibliothèque Léon-Laberge (L'Islet)",
    "category": {
      "fr": "Bibliothèque",
      "en": "Library"
    },
    "borough": null,
    "location": {
      "lat": 47.1037729,
      "lng": -70.3513072
    },
    "description": "Bibliothèque  Affiliée au Réseau BIBLIO 418 247-5345",
    "source": ""
  },
  {
    "id": 188,
    "title": "Bibliothèque Jean-Paul-Bourque (L'Islet-sur-Mer)",
    "category": {
      "fr": "Bibliothèque",
      "en": "Library"
    },
    "borough": null,
    "location": {
      "lat": 47.1268072,
      "lng": -70.372357
    },
    "description": "Bibliothèque  Affiliée au Réseau BIBLIO 418 247-7576",
    "source": ""
  },
  {
    "id": 189,
    "title": "Bibliothèque Au fil des pages (Lotbinière)",
    "category": {
      "fr": "Bibliothèque",
      "en": "Library"
    },
    "borough": null,
    "location": {
      "lat": 46.6165585,
      "lng": -71.937368
    },
    "description": "Bibliothèque  Affiliée au Réseau BIBLIO 418 796-2912",
    "source": ""
  },
  {
    "id": 190,
    "title": "Bibliothèque municipale de Saint-Camille-de-Lellis",
    "category": {
      "fr": "Bibliothèque",
      "en": "Library"
    },
    "borough": null,
    "location": {
      "lat": 46.4959671,
      "lng": -70.2107101
    },
    "description": "Bibliothèque  Affiliée au Réseau BIBLIO 418 595-2978",
    "source": ""
  },
  {
    "id": 191,
    "title": "Bibliothèque La Rêverie (Notre-Dame-du-Sacré-Coeur-d'Issoudun)",
    "category": {
      "fr": "Bibliothèque",
      "en": "Library"
    },
    "borough": null,
    "location": {
      "lat": 46.5789227,
      "lng": -71.623081
    },
    "description": "Bibliothèque  Affiliée au Réseau BIBLIO 418 728-9061",
    "source": ""
  },
  {
    "id": 192,
    "title": "Bibliothèque Laurent-Caron",
    "category": {
      "fr": "Bibliothèque",
      "en": "Library"
    },
    "borough": null,
    "location": {
      "lat": 46.6301899,
      "lng": -70.9711155
    },
    "description": "Bibliothèque  Affiliée au Réseau BIBLIO 418 885-0024",
    "source": ""
  },
  {
    "id": 193,
    "title": "Bibliothèque La Rose des Vents",
    "category": {
      "fr": "Bibliothèque",
      "en": "Library"
    },
    "borough": null,
    "location": {
      "lat": 47.0668751,
      "lng": -70.5392069
    },
    "description": "Bibliothèque  Affiliée au Réseau BIBLIO 418 248-4680",
    "source": ""
  },
  {
    "id": 194,
    "title": "Bibliothèque La Corne de brume",
    "category": {
      "fr": "Bibliothèque",
      "en": "Library"
    },
    "borough": null,
    "location": {
      "lat": 46.6627113,
      "lng": -71.5726776
    },
    "description": "Bibliothèque  Affiliée au Réseau BIBLIO 418 886-2603",
    "source": ""
  },
  {
    "id": 195,
    "title": "Bibliothèque Au Jardin des livres",
    "category": {
      "fr": "Bibliothèque",
      "en": "Library"
    },
    "borough": null,
    "location": {
      "lat": 46.6161181,
      "lng": -71.509224
    },
    "description": "Bibliothèque  Municipale 418 881-2447",
    "source": ""
  },
  {
    "id": 196,
    "title": "Bibliothèque Charles-E.-Harpe",
    "category": {
      "fr": "Bibliothèque",
      "en": "Library"
    },
    "borough": null,
    "location": {
      "lat": 47.1784881,
      "lng": -70.2181678
    },
    "description": "Bibliothèque  Affiliée au Réseau BIBLIO 418 598-3623",
    "source": ""
  },
  {
    "id": 197,
    "title": "Bibliothèque Jacques-Labrie",
    "category": {
      "fr": "Bibliothèque",
      "en": "Library"
    },
    "borough": null,
    "location": {
      "lat": 46.7730927,
      "lng": -70.940746
    },
    "description": "Bibliothèque  Affiliée au Réseau BIBLIO 418 887-6561",
    "source": ""
  },
  {
    "id": 198,
    "title": "Bibliothèque municipale de Saint-Côme-Linière",
    "category": {
      "fr": "Bibliothèque",
      "en": "Library"
    },
    "borough": null,
    "location": {
      "lat": 46.0579031,
      "lng": -70.5209382
    },
    "description": "Bibliothèque  Affiliée au Réseau BIBLIO 418 685-3825",
    "source": ""
  },
  {
    "id": 199,
    "title": "Bibliothèque Le Bouquin d'Or",
    "category": {
      "fr": "Bibliothèque",
      "en": "Library"
    },
    "borough": null,
    "location": {
      "lat": 46.6296918,
      "lng": -70.6655932
    },
    "description": "Bibliothèque  Affiliée au Réseau BIBLIO 418 789-2127",
    "source": ""
  },
  {
    "id": 200,
    "title": "Bibliothèque L'Évasion",
    "category": {
      "fr": "Bibliothèque",
      "en": "Library"
    },
    "borough": null,
    "location": {
      "lat": 46.8065295,
      "lng": -70.1942024
    },
    "description": "Bibliothèque  Affiliée au Réseau BIBLIO 418-369-3031",
    "source": ""
  },
  {
    "id": 201,
    "title": "Bibliothèque Le Maillon (Sainte-Aurélie)",
    "category": {
      "fr": "Bibliothèque",
      "en": "Library"
    },
    "borough": null,
    "location": {
      "lat": 46.1762885,
      "lng": -70.361087
    },
    "description": "Bibliothèque  Affiliée au Réseau BIBLIO 418 593-3021",
    "source": ""
  },
  {
    "id": 202,
    "title": "Bibliothèque La Détente (Sainte-Hénédine)",
    "category": {
      "fr": "Bibliothèque",
      "en": "Library"
    },
    "borough": null,
    "location": {
      "lat": 46.5575226,
      "lng": -70.9859849
    },
    "description": "Bibliothèque  Affiliée au Réseau BIBLIO 418 935-3993",
    "source": ""
  },
  {
    "id": 203,
    "title": "Bibliothèque Roch-Carrier",
    "category": {
      "fr": "Bibliothèque",
      "en": "Library"
    },
    "borough": null,
    "location": {
      "lat": 46.4107933,
      "lng": -70.3476151
    },
    "description": "Bibliothèque  Affiliée au Réseau BIBLIO 418 383-5399",
    "source": ""
  },
  {
    "id": 204,
    "title": "Biblio La Bouquine (Sainte-Marguerite)",
    "category": {
      "fr": "Bibliothèque",
      "en": "Library"
    },
    "borough": null,
    "location": {
      "lat": 46.511141,
      "lng": -70.9365918
    },
    "description": "Bibliothèque  Affiliée au Réseau BIBLIO 418 935-7089",
    "source": ""
  },
  {
    "id": 205,
    "title": "Bibliothèque Jeanne-d’Arc-Ruël",
    "category": {
      "fr": "Bibliothèque",
      "en": "Library"
    },
    "borough": null,
    "location": {
      "lat": 45.9013401,
      "lng": -71.2558774
    },
    "description": "Bibliothèque  Affiliée au Réseau BIBLIO 418 449-2626",
    "source": ""
  },
  {
    "id": 206,
    "title": "Bibliothèque Sabithèque (Sainte-Sabine)",
    "category": {
      "fr": "Bibliothèque",
      "en": "Library"
    },
    "borough": null,
    "location": {
      "lat": 46.49295,
      "lng": -70.3520875
    },
    "description": "Bibliothèque  Affiliée au Réseau BIBLIO 418 383-5788",
    "source": ""
  },
  {
    "id": 207,
    "title": "Bibliothèque Fabiothèque (Saint-Fabien-de-Panet)",
    "category": {
      "fr": "Bibliothèque",
      "en": "Library"
    },
    "borough": null,
    "location": {
      "lat": 46.6556965,
      "lng": -70.1465779
    },
    "description": "Bibliothèque  Affiliée au Réseau BIBLIO 418 249-4471",
    "source": ""
  },
  {
    "id": 208,
    "title": "Bibliothèque La Flaviethèque",
    "category": {
      "fr": "Bibliothèque",
      "en": "Library"
    },
    "borough": null,
    "location": {
      "lat": 46.5121294,
      "lng": -71.598315
    },
    "description": "Bibliothèque  Affiliée au Réseau BIBLIO 418 728-4190",
    "source": ""
  },
  {
    "id": 209,
    "title": "Bibliothèque municipale de Saint-Fortunat",
    "category": {
      "fr": "Bibliothèque",
      "en": "Library"
    },
    "borough": null,
    "location": {
      "lat": 45.9724784,
      "lng": -71.5997033
    },
    "description": "Bibliothèque  Affiliée au Réseau BIBLIO 819 344-5399",
    "source": ""
  },
  {
    "id": 210,
    "title": "Bibliothèque Le Signet (Saint-Gilles)",
    "category": {
      "fr": "Bibliothèque",
      "en": "Library"
    },
    "borough": null,
    "location": {
      "lat": 46.5070506,
      "lng": -71.3632246
    },
    "description": "Bibliothèque  Affiliée au Réseau BIBLIO 418 888-4210",
    "source": ""
  },
  {
    "id": 211,
    "title": "Bibliothèque La Reliure",
    "category": {
      "fr": "Bibliothèque",
      "en": "Library"
    },
    "borough": null,
    "location": {
      "lat": 46.6926281,
      "lng": -71.0677675
    },
    "description": "Bibliothèque  Municipale 4188822401",
    "source": ""
  },
  {
    "id": 212,
    "title": "Bibliothèque Laurette-Nadeau-Parent",
    "category": {
      "fr": "Bibliothèque",
      "en": "Library"
    },
    "borough": null,
    "location": {
      "lat": 46.5850391,
      "lng": -71.091088
    },
    "description": "Bibliothèque  Affiliée au Réseau BIBLIO 418 700-1018",
    "source": ""
  },
  {
    "id": 213,
    "title": "Bibliothèque La Ressource (Saint-Jacques-de-Leeds)",
    "category": {
      "fr": "Bibliothèque",
      "en": "Library"
    },
    "borough": null,
    "location": {
      "lat": 46.283022,
      "lng": -71.3433456
    },
    "description": "Bibliothèque  Affiliée au Réseau BIBLIO 418 424-3181",
    "source": ""
  },
  {
    "id": 214,
    "title": "Bibliothèque Adrien-Lambert (Saint-Janvier-de-Joly)",
    "category": {
      "fr": "Bibliothèque",
      "en": "Library"
    },
    "borough": null,
    "location": {
      "lat": 46.4846964,
      "lng": -71.6642259
    },
    "description": "Bibliothèque  Affiliée au Réseau BIBLIO 418 728-2984",
    "source": ""
  },
  {
    "id": 215,
    "title": "Bibliothèque Bibliomagie (Saint-Jean-de-Brébeuf)",
    "category": {
      "fr": "Bibliothèque",
      "en": "Library"
    },
    "borough": null,
    "location": {
      "lat": 46.1831375,
      "lng": -71.4570349
    },
    "description": "Bibliothèque  Affiliée au Réseau BIBLIO 418 453-2571",
    "source": ""
  },
  {
    "id": 216,
    "title": "Bibliothèque de Saint-Joseph-de-Beauce et de Saint-Joseph-des-Érables",
    "category": {
      "fr": "Bibliothèque",
      "en": "Library"
    },
    "borough": null,
    "location": {
      "lat": 46.3111919,
      "lng": -70.8821305
    },
    "description": "Bibliothèque  Affiliée au Réseau BIBLIO 418 397-6160",
    "source": ""
  },
  {
    "id": 217,
    "title": "Bibliothèque des Z’hauteurs",
    "category": {
      "fr": "Bibliothèque",
      "en": "Library"
    },
    "borough": null,
    "location": {
      "lat": 45.9940349,
      "lng": -71.5281419
    },
    "description": "Bibliothèque  Affiliée au Réseau BIBLIO 418 423-7474",
    "source": ""
  },
  {
    "id": 218,
    "title": "Bibliothèque Biblio-Culture",
    "category": {
      "fr": "Bibliothèque",
      "en": "Library"
    },
    "borough": null,
    "location": {
      "lat": 46.6564263,
      "lng": -70.7980097
    },
    "description": "Bibliothèque  Affiliée au Réseau BIBLIO 418 883-2551",
    "source": ""
  },
  {
    "id": 219,
    "title": "Bibliothèque l'Étincelle",
    "category": {
      "fr": "Bibliothèque",
      "en": "Library"
    },
    "borough": null,
    "location": {
      "lat": 46.4777701,
      "lng": -70.6163301
    },
    "description": "Bibliothèque  Affiliée au Réseau BIBLIO 418 642-2708",
    "source": ""
  },
  {
    "id": 220,
    "title": "Bibliothèque L’Éveil",
    "category": {
      "fr": "Bibliothèque",
      "en": "Library"
    },
    "borough": null,
    "location": {
      "lat": 46.5048175,
      "lng": -70.4873738
    },
    "description": "Bibliothèque  Affiliée au Réseau BIBLIO 418 636-2776",
    "source": ""
  },
  {
    "id": 221,
    "title": "Bibliothèque J.-A.-Kirouac (Saint-Malachie)",
    "category": {
      "fr": "Bibliothèque",
      "en": "Library"
    },
    "borough": null,
    "location": {
      "lat": 46.5307385,
      "lng": -70.7655539
    },
    "description": "Bibliothèque  Affiliée au Réseau BIBLIO 418 642-5127",
    "source": ""
  },
  {
    "id": 222,
    "title": "Bibliothèque municipale de Saint-Martin et Saint-René",
    "category": {
      "fr": "Bibliothèque",
      "en": "Library"
    },
    "borough": null,
    "location": {
      "lat": 45.9557343,
      "lng": -70.6591466
    },
    "description": "Bibliothèque  Affiliée au Réseau BIBLIO 418 382-5034",
    "source": ""
  },
  {
    "id": 223,
    "title": "Bibliothèque municipale de Saint-Narcisse-de-Beaurivage",
    "category": {
      "fr": "Bibliothèque",
      "en": "Library"
    },
    "borough": null,
    "location": {
      "lat": 46.4806824,
      "lng": -71.2306294
    },
    "description": "Bibliothèque  Affiliée au Réseau BIBLIO 418 475-6464",
    "source": ""
  },
  {
    "id": 224,
    "title": "Bibliothèque Biblio Du Centenaire (Saint-Nérée)",
    "category": {
      "fr": "Bibliothèque",
      "en": "Library"
    },
    "borough": null,
    "location": {
      "lat": 46.7256348,
      "lng": -70.7217144
    },
    "description": "Bibliothèque  Affiliée au Réseau BIBLIO 418 243-3649",
    "source": ""
  },
  {
    "id": 225,
    "title": "Bibliothèque L'Intello (Saint-Odilon-de-Cranbourne)",
    "category": {
      "fr": "Bibliothèque",
      "en": "Library"
    },
    "borough": null,
    "location": {
      "lat": 46.3570903,
      "lng": -70.6775725
    },
    "description": "Bibliothèque  Affiliée au Réseau BIBLIO 418 464-4803",
    "source": ""
  },
  {
    "id": 226,
    "title": "Bibliothèque Florence-Guay (Saint-Patrice-de-Beaurivage)",
    "category": {
      "fr": "Bibliothèque",
      "en": "Library"
    },
    "borough": null,
    "location": {
      "lat": 46.4107931,
      "lng": -71.2396336
    },
    "description": "Bibliothèque  Affiliée au Réseau BIBLIO 418 596-2439",
    "source": ""
  },
  {
    "id": 227,
    "title": "Bibliothèque Maurice-Couture (Saint-Pierre-de-Broughton)",
    "category": {
      "fr": "Bibliothèque",
      "en": "Library"
    },
    "borough": null,
    "location": {
      "lat": 46.244531,
      "lng": -71.2068169
    },
    "description": "Bibliothèque  Affiliée au Réseau BIBLIO 418 424-3450",
    "source": ""
  },
  {
    "id": 228,
    "title": "Bibliothèque municipale de Saint-Prosper",
    "category": {
      "fr": "Bibliothèque",
      "en": "Library"
    },
    "borough": null,
    "location": {
      "lat": 46.2134386,
      "lng": -70.4794101
    },
    "description": "Bibliothèque  Affiliée au Réseau BIBLIO 418 594-5197",
    "source": ""
  },
  {
    "id": 229,
    "title": "Bibliothèque Bibli-Aulnaies (Saint-Roch-des-Aulnaies)",
    "category": {
      "fr": "Bibliothèque",
      "en": "Library"
    },
    "borough": null,
    "location": {
      "lat": 47.3087146,
      "lng": -70.1824533
    },
    "description": "Bibliothèque  Affiliée au Réseau BIBLIO 418 856-7045",
    "source": ""
  },
  {
    "id": 230,
    "title": "Bibliothèque La Voluthèque",
    "category": {
      "fr": "Bibliothèque",
      "en": "Library"
    },
    "borough": null,
    "location": {
      "lat": 46.325659,
      "lng": -71.054816
    },
    "description": "Bibliothèque  Affiliée au Réseau BIBLIO 418 426-2423",
    "source": ""
  },
  {
    "id": 231,
    "title": "Bibliothèque Aux Quatre Vents",
    "category": {
      "fr": "Bibliothèque",
      "en": "Library"
    },
    "borough": null,
    "location": {
      "lat": 47.5733857,
      "lng": -70.401014
    },
    "description": "Bibliothèque  Affiliée au Réseau BIBLIO 418 489-2999",
    "source": ""
  },
  {
    "id": 232,
    "title": "Bibliothèque Marie-Josephte-Corrivaux (Saint-Vallier)",
    "category": {
      "fr": "Bibliothèque",
      "en": "Library"
    },
    "borough": null,
    "location": {
      "lat": 46.8929439,
      "lng": -70.8237801
    },
    "description": "Bibliothèque  Affiliée au Réseau BIBLIO 418 884-3190",
    "source": ""
  },
  {
    "id": 233,
    "title": "Bibliothèque Biblio Luc-Lacourcière (Saint-Victor)",
    "category": {
      "fr": "Bibliothèque",
      "en": "Library"
    },
    "borough": null,
    "location": {
      "lat": 46.1459468,
      "lng": -70.9032948
    },
    "description": "Bibliothèque  Affiliée au Réseau BIBLIO 418 588-6854",
    "source": ""
  },
  {
    "id": 234,
    "title": "Bibliothèque municipale de Scott",
    "category": {
      "fr": "Bibliothèque",
      "en": "Library"
    },
    "borough": null,
    "location": {
      "lat": 46.5053645,
      "lng": -71.0725758
    },
    "description": "Bibliothèque  Affiliée au Réseau BIBLIO 418 386-2736",
    "source": ""
  },
  {
    "id": 235,
    "title": "Bibliothèque de l'Amitié",
    "category": {
      "fr": "Bibliothèque",
      "en": "Library"
    },
    "borough": null,
    "location": {
      "lat": 46.140926,
      "lng": -71.216622
    },
    "description": "Bibliothèque  Municipale 418 332-4548",
    "source": ""
  },
  {
    "id": 236,
    "title": "Bibliothèque des Sous-Bois",
    "category": {
      "fr": "Bibliothèque",
      "en": "Library"
    },
    "borough": null,
    "location": {
      "lat": 46.6790615,
      "lng": -70.451061
    },
    "description": "Bibliothèque  Affiliée au Réseau BIBLIO 418 469-2443",
    "source": ""
  },
  {
    "id": 237,
    "title": "Bibliothèque de Bury",
    "category": {
      "fr": "Bibliothèque",
      "en": "Library"
    },
    "borough": null,
    "location": {
      "lat": 45.4730029,
      "lng": -71.5003758
    },
    "description": "Bibliothèque  Affiliée au Réseau BIBLIO 819 872-3830",
    "source": ""
  },
  {
    "id": 238,
    "title": "Bibliothèque de Chartierville",
    "category": {
      "fr": "Bibliothèque",
      "en": "Library"
    },
    "borough": null,
    "location": {
      "lat": 45.2991766,
      "lng": -71.204454
    },
    "description": "Bibliothèque  Affiliée au Réseau BIBLIO 819 656-2323",
    "source": ""
  },
  {
    "id": 239,
    "title": "Bibliothèque de Compton",
    "category": {
      "fr": "Bibliothèque",
      "en": "Library"
    },
    "borough": null,
    "location": {
      "lat": 45.2405424,
      "lng": -71.8287098
    },
    "description": "Bibliothèque  Affiliée au Réseau BIBLIO 819 835-0404",
    "source": ""
  },
  {
    "id": 240,
    "title": "Bibliothèque de Cookshire-Eaton (Secteur Cookshire)",
    "category": {
      "fr": "Bibliothèque",
      "en": "Library"
    },
    "borough": null,
    "location": {
      "lat": 45.4128353,
      "lng": -71.6263787
    },
    "description": "Bibliothèque  Affiliée au Réseau BIBLIO 819 875-3016",
    "source": ""
  },
  {
    "id": 241,
    "title": "Cookshire-Eaton (Secteur Sawyerville)",
    "category": {
      "fr": "Bibliothèque",
      "en": "Library"
    },
    "borough": null,
    "location": {
      "lat": 45.3362798,
      "lng": -71.5655021
    },
    "description": "Bibliothèque  Affiliée au Réseau BIBLIO 819 889-2252",
    "source": ""
  },
  {
    "id": 242,
    "title": "Bibliothèque de Dixville",
    "category": {
      "fr": "Bibliothèque",
      "en": "Library"
    },
    "borough": null,
    "location": {
      "lat": 45.0663906,
      "lng": -71.7696715
    },
    "description": "Bibliothèque  Affiliée au Réseau BIBLIO 819 849-3037",
    "source": ""
  },
  {
    "id": 243,
    "title": "Bibliothèque de Dudswell",
    "category": {
      "fr": "Bibliothèque",
      "en": "Library"
    },
    "borough": null,
    "location": {
      "lat": 45.6329902,
      "lng": -71.5903316
    },
    "description": "Bibliothèque  Affiliée au Réseau BIBLIO 819 884-5926",
    "source": ""
  },
  {
    "id": 244,
    "title": "Bibliothèque de East Hereford",
    "category": {
      "fr": "Bibliothèque",
      "en": "Library"
    },
    "borough": null,
    "location": {
      "lat": 45.0757838,
      "lng": -71.5030713
    },
    "description": "Bibliothèque  Affiliée au Réseau BIBLIO 819 844-2463",
    "source": ""
  },
  {
    "id": 245,
    "title": "Bibliothèque d'Eastman",
    "category": {
      "fr": "Bibliothèque",
      "en": "Library"
    },
    "borough": null,
    "location": {
      "lat": 45.3014851,
      "lng": -72.3160405
    },
    "description": "Bibliothèque  Affiliée au Réseau BIBLIO 450 297-2120",
    "source": ""
  },
  {
    "id": 246,
    "title": "Bibliothèque de Eastman",
    "category": {
      "fr": "Bibliothèque",
      "en": "Library"
    },
    "borough": null,
    "location": {
      "lat": 45.2659946,
      "lng": -72.3808976
    },
    "description": "Bibliothèque  Affiliée au Réseau BIBLIO 450 297-3353",
    "source": ""
  },
  {
    "id": 247,
    "title": "Bibliothèque de Hatley",
    "category": {
      "fr": "Bibliothèque",
      "en": "Library"
    },
    "borough": null,
    "location": {
      "lat": 45.1845398,
      "lng": -71.9381311
    },
    "description": "Bibliothèque  Affiliée au Réseau BIBLIO 819 838-1429",
    "source": ""
  },
  {
    "id": 248,
    "title": "Bibliothèque de Lambton",
    "category": {
      "fr": "Bibliothèque",
      "en": "Library"
    },
    "borough": null,
    "location": {
      "lat": 45.8364426,
      "lng": -71.0896705
    },
    "description": "Bibliothèque  Affiliée au Réseau BIBLIO 418 486-2750",
    "source": ""
  },
  {
    "id": 249,
    "title": "Bibliothèque de Magog (Secteur Omerville)",
    "category": {
      "fr": "Bibliothèque",
      "en": "Library"
    },
    "borough": null,
    "location": {
      "lat": 45.2908638,
      "lng": -72.1171471
    },
    "description": "Bibliothèque  Affiliée au Réseau BIBLIO 819 868-6679",
    "source": ""
  },
  {
    "id": 250,
    "title": "Bibliothèque de Milan",
    "category": {
      "fr": "Bibliothèque",
      "en": "Library"
    },
    "borough": null,
    "location": {
      "lat": 45.5854842,
      "lng": -71.1271059
    },
    "description": "Bibliothèque  Affiliée au Réseau BIBLIO 819 657-4527",
    "source": ""
  },
  {
    "id": 251,
    "title": "Bibliothèque de Piopolis",
    "category": {
      "fr": "Bibliothèque",
      "en": "Library"
    },
    "borough": null,
    "location": {
      "lat": 45.4857872,
      "lng": -70.9074061
    },
    "description": "Bibliothèque  Affiliée au Réseau BIBLIO 819 583-3953",
    "source": ""
  },
  {
    "id": 252,
    "title": "Bibliothèque de Saint-Augustin-de-Woburn",
    "category": {
      "fr": "Bibliothèque",
      "en": "Library"
    },
    "borough": null,
    "location": {
      "lat": 45.3856744,
      "lng": -70.8638975
    },
    "description": "Bibliothèque  Affiliée au Réseau BIBLIO 819 544-4741",
    "source": ""
  },
  {
    "id": 253,
    "title": "Bibliothèque de Saint-Camille",
    "category": {
      "fr": "Bibliothèque",
      "en": "Library"
    },
    "borough": null,
    "location": {
      "lat": 45.6824214,
      "lng": -71.7013403
    },
    "description": "Bibliothèque  Affiliée au Réseau BIBLIO 819 828-3222",
    "source": ""
  },
  {
    "id": 254,
    "title": "Bibliothèque de Saint-Claude",
    "category": {
      "fr": "Bibliothèque",
      "en": "Library"
    },
    "borough": null,
    "location": {
      "lat": 45.6592128,
      "lng": -71.9762456
    },
    "description": "Bibliothèque  Affiliée au Réseau BIBLIO 819 845-3259",
    "source": ""
  },
  {
    "id": 255,
    "title": "Bibliothèque de Sainte-Cécile-de-Whitton",
    "category": {
      "fr": "Bibliothèque",
      "en": "Library"
    },
    "borough": null,
    "location": {
      "lat": 45.6675049,
      "lng": -70.9408801
    },
    "description": "Bibliothèque  Affiliée au Réseau BIBLIO 819 583-4149",
    "source": ""
  },
  {
    "id": 256,
    "title": "Bibliothèque de Saint-Georges-de-Windsor",
    "category": {
      "fr": "Bibliothèque",
      "en": "Library"
    },
    "borough": null,
    "location": {
      "lat": 45.6987669,
      "lng": -71.84621
    },
    "description": "Bibliothèque  Affiliée au Réseau BIBLIO 819 828-2716",
    "source": ""
  },
  {
    "id": 257,
    "title": "Bibliothèque de Saint-Isidore-de-Clifton",
    "category": {
      "fr": "Bibliothèque",
      "en": "Library"
    },
    "borough": null,
    "location": {
      "lat": 45.264905,
      "lng": -71.5115521
    },
    "description": "Bibliothèque  Affiliée au Réseau BIBLIO 819 658-9070",
    "source": ""
  },
  {
    "id": 258,
    "title": "Bibliothèque de Saint-Joseph-de-Ham-Sud",
    "category": {
      "fr": "Bibliothèque",
      "en": "Library"
    },
    "borough": null,
    "location": {
      "lat": 45.7569612,
      "lng": -71.6021673
    },
    "description": "Bibliothèque  Affiliée au Réseau BIBLIO 819 877-5550",
    "source": ""
  },
  {
    "id": 259,
    "title": "Bibliothèque de Saint-Ludger",
    "category": {
      "fr": "Bibliothèque",
      "en": "Library"
    },
    "borough": null,
    "location": {
      "lat": 45.7411814,
      "lng": -70.6912208
    },
    "description": "Bibliothèque  Affiliée au Réseau BIBLIO ",
    "source": ""
  },
  {
    "id": 260,
    "title": "Bibliothèque de Saint-Romain",
    "category": {
      "fr": "Bibliothèque",
      "en": "Library"
    },
    "borough": null,
    "location": {
      "lat": 45.7849255,
      "lng": -71.0926124
    },
    "description": "Bibliothèque  Affiliée au Réseau BIBLIO 418 486-7300",
    "source": ""
  },
  {
    "id": 261,
    "title": "Bibliothèque de Saint-Venant-de-Paquette",
    "category": {
      "fr": "Bibliothèque",
      "en": "Library"
    },
    "borough": null,
    "location": {
      "lat": 45.1254311,
      "lng": -71.4628425
    },
    "description": "Bibliothèque  Affiliée au Réseau BIBLIO 819 658-3660",
    "source": ""
  },
  {
    "id": 262,
    "title": "Bibliothèque de Scotstown",
    "category": {
      "fr": "Bibliothèque",
      "en": "Library"
    },
    "borough": null,
    "location": {
      "lat": 45.5237098,
      "lng": -71.2806982
    },
    "description": "Bibliothèque  Affiliée au Réseau BIBLIO 819 657-4343",
    "source": ""
  },
  {
    "id": 263,
    "title": "Bibliothèque Réjeanne-Venner",
    "category": {
      "fr": "Bibliothèque",
      "en": "Library"
    },
    "borough": null,
    "location": {
      "lat": 45.5329257,
      "lng": -71.8057195
    },
    "description": "Bibliothèque  Affiliée au Réseau BIBLIO 819 878-3333",
    "source": ""
  },
  {
    "id": 264,
    "title": "Bibliothèque de Stornoway",
    "category": {
      "fr": "Bibliothèque",
      "en": "Library"
    },
    "borough": null,
    "location": {
      "lat": 45.709018,
      "lng": -71.158587
    },
    "description": "Bibliothèque  Affiliée au Réseau BIBLIO 819 652-2659",
    "source": ""
  },
  {
    "id": 265,
    "title": "Bibliothèque de Stratford",
    "category": {
      "fr": "Bibliothèque",
      "en": "Library"
    },
    "borough": null,
    "location": {
      "lat": 45.7820441,
      "lng": -71.2827046
    },
    "description": "Bibliothèque  Affiliée au Réseau BIBLIO 418 443-2665",
    "source": ""
  },
  {
    "id": 266,
    "title": "Bibliothèque de Waterville",
    "category": {
      "fr": "Bibliothèque",
      "en": "Library"
    },
    "borough": null,
    "location": {
      "lat": 45.2767142,
      "lng": -71.889514
    },
    "description": "Bibliothèque  Affiliée au Réseau BIBLIO 819 837-0557",
    "source": ""
  },
  {
    "id": 267,
    "title": "Bibliothèque de Weedon (secteur Saint-Gérard)",
    "category": {
      "fr": "Bibliothèque",
      "en": "Library"
    },
    "borough": null,
    "location": {
      "lat": 45.7602829,
      "lng": -71.4102035
    },
    "description": "Bibliothèque  Affiliée au Réseau BIBLIO 418 877-5704",
    "source": ""
  },
  {
    "id": 268,
    "title": "Bibliothèque de Weedon (Secteur Weedon)",
    "category": {
      "fr": "Bibliothèque",
      "en": "Library"
    },
    "borough": null,
    "location": {
      "lat": 45.7010862,
      "lng": -71.461694
    },
    "description": "Bibliothèque  Affiliée au Réseau BIBLIO 418 877-3044",
    "source": ""
  },
  {
    "id": 269,
    "title": "Bibliothèque Françoise-Bujold (Bonaventure)",
    "category": {
      "fr": "Bibliothèque",
      "en": "Library"
    },
    "borough": null,
    "location": {
      "lat": 48.0452378,
      "lng": -65.4931012
    },
    "description": "Bibliothèque  Affiliée au Réseau BIBLIO 418 534-4238",
    "source": ""
  },
  {
    "id": 270,
    "title": "Bibliothèque La ruche littéraire (Cap-Chat)",
    "category": {
      "fr": "Bibliothèque",
      "en": "Library"
    },
    "borough": null,
    "location": {
      "lat": 49.0949821,
      "lng": -66.6907385
    },
    "description": "Bibliothèque  Affiliée au Réseau BIBLIO 418 786-2068",
    "source": ""
  },
  {
    "id": 271,
    "title": "Bibliothèque de Capucins (Cap-Chat)",
    "category": {
      "fr": "Bibliothèque",
      "en": "Library"
    },
    "borough": null,
    "location": {
      "lat": 49.0490316,
      "lng": -66.8432986
    },
    "description": "Bibliothèque  Affiliée au Réseau BIBLIO 418 786-2013",
    "source": ""
  },
  {
    "id": 272,
    "title": "Bibliothèque Jeanne-Ferlatte (Caplan)",
    "category": {
      "fr": "Bibliothèque",
      "en": "Library"
    },
    "borough": null,
    "location": {
      "lat": 48.101541,
      "lng": -65.6802088
    },
    "description": "Bibliothèque  Affiliée au Réseau BIBLIO 418 388-2545",
    "source": ""
  },
  {
    "id": 273,
    "title": "Bibliothèque Gabrielle-Bernard-Dubé (Carleton-sur-Mer)",
    "category": {
      "fr": "Bibliothèque",
      "en": "Library"
    },
    "borough": null,
    "location": {
      "lat": 48.1014388,
      "lng": -66.1076563
    },
    "description": "Bibliothèque  Affiliée au Réseau BIBLIO 418 364-7103",
    "source": ""
  },
  {
    "id": 274,
    "title": "Bibliothèque de Saint-Omer (Carleton-sur-Mer)",
    "category": {
      "fr": "Bibliothèque",
      "en": "Library"
    },
    "borough": null,
    "location": {
      "lat": 48.1087886,
      "lng": -66.2558846
    },
    "description": "Bibliothèque  Affiliée au Réseau BIBLIO 418 364-6485",
    "source": ""
  },
  {
    "id": 275,
    "title": "Bibliothèque municipale-scolaire de Chandler",
    "category": {
      "fr": "Bibliothèque",
      "en": "Library"
    },
    "borough": null,
    "location": {
      "lat": 48.3483569,
      "lng": -64.6850801
    },
    "description": "Bibliothèque  Municipale 418 689-3808",
    "source": ""
  },
  {
    "id": 276,
    "title": "Bibliothèque de Newport (Chandler)",
    "category": {
      "fr": "Bibliothèque",
      "en": "Library"
    },
    "borough": null,
    "location": {
      "lat": 48.3497562,
      "lng": -64.6772538
    },
    "description": "Bibliothèque  Affiliée au Réseau BIBLIO 418 777-2523",
    "source": ""
  },
  {
    "id": 277,
    "title": "Bibliothèque de Douglastown (Gaspé)",
    "category": {
      "fr": "Bibliothèque",
      "en": "Library"
    },
    "borough": null,
    "location": {
      "lat": 48.7627082,
      "lng": -64.3767929
    },
    "description": "Bibliothèque  Affiliée au Réseau BIBLIO 418 368-2104 poste 8582",
    "source": ""
  },
  {
    "id": 278,
    "title": "Bibliothèque de Cap-aux-Os (Gaspé)",
    "category": {
      "fr": "Bibliothèque",
      "en": "Library"
    },
    "borough": null,
    "location": {
      "lat": 48.8364101,
      "lng": -64.3417739
    },
    "description": "Bibliothèque  Affiliée au Réseau BIBLIO 418 368-2104 poste 8581",
    "source": ""
  },
  {
    "id": 279,
    "title": "Bibliothèque Alma-Bourget-Costicella (Gaspé)",
    "category": {
      "fr": "Bibliothèque",
      "en": "Library"
    },
    "borough": null,
    "location": {
      "lat": 48.8290588,
      "lng": -64.4837042
    },
    "description": "Bibliothèque  Affiliée au Réseau BIBLIO 418 368-2104 poste 8576",
    "source": ""
  },
  {
    "id": 280,
    "title": "Bibliothèque de Rivière-au-Renard (Gaspé)",
    "category": {
      "fr": "Bibliothèque",
      "en": "Library"
    },
    "borough": null,
    "location": {
      "lat": 48.97923,
      "lng": -64.3637442
    },
    "description": "Bibliothèque  Affiliée au Réseau BIBLIO 418 368-2104 poste 8577",
    "source": ""
  },
  {
    "id": 281,
    "title": "Bibliothèque de Grande-Vallée",
    "category": {
      "fr": "Bibliothèque",
      "en": "Library"
    },
    "borough": null,
    "location": {
      "lat": 49.2257541,
      "lng": -65.124981
    },
    "description": "Bibliothèque  Affiliée au Réseau BIBLIO 418 393-2166",
    "source": ""
  },
  {
    "id": 282,
    "title": "Bibliothèque L'Évasion (Sainte-Claire)",
    "category": {
      "fr": "Bibliothèque",
      "en": "Library"
    },
    "borough": null,
    "location": {
      "lat": 46.598932,
      "lng": -70.8659689
    },
    "description": "Bibliothèque  Affiliée au Réseau BIBLIO 418 883-2275",
    "source": ""
  },
  {
    "id": 283,
    "title": "Bibliothèque La Bouquinerie ",
    "category": {
      "fr": "Bibliothèque",
      "en": "Library"
    },
    "borough": null,
    "location": {
      "lat": 46.7401448,
      "lng": -70.0242304
    },
    "description": "Bibliothèque  Affiliée au Réseau BIBLIO 418 223-3125",
    "source": ""
  },
  {
    "id": 284,
    "title": "Bibliothèque La Volumineuse",
    "category": {
      "fr": "Bibliothèque",
      "en": "Library"
    },
    "borough": null,
    "location": {
      "lat": 46.9153442,
      "lng": -70.6275979
    },
    "description": "Bibliothèque  Affiliée au Réseau BIBLIO 418 248-8031",
    "source": ""
  },
  {
    "id": 285,
    "title": "Bibliothèque de Lingwick",
    "category": {
      "fr": "Bibliothèque",
      "en": "Library"
    },
    "borough": null,
    "location": {
      "lat": 45.6099776,
      "lng": -71.3529392
    },
    "description": "Bibliothèque  Affiliée au Réseau BIBLIO 819 877-3311",
    "source": ""
  },
  {
    "id": 286,
    "title": "Bibliothèque de Grosse-Île",
    "category": {
      "fr": "Bibliothèque",
      "en": "Library"
    },
    "borough": null,
    "location": {
      "lat": 47.6211631,
      "lng": -61.5231293
    },
    "description": "Bibliothèque  Affiliée au Réseau BIBLIO 418 986-2885",
    "source": ""
  },
  {
    "id": 287,
    "title": "Bibliothèque de Hope Town",
    "category": {
      "fr": "Bibliothèque",
      "en": "Library"
    },
    "borough": null,
    "location": {
      "lat": 48.0499412,
      "lng": -65.1609942
    },
    "description": "Bibliothèque  Affiliée au Réseau BIBLIO 418 752-3848",
    "source": ""
  },
  {
    "id": 288,
    "title": "Bibliothèque de Grande-Entrée",
    "category": {
      "fr": "Bibliothèque",
      "en": "Library"
    },
    "borough": null,
    "location": {
      "lat": 47.2346334,
      "lng": -61.863316
    },
    "description": "Bibliothèque  Municipale 418 986-3100",
    "source": ""
  },
  {
    "id": 289,
    "title": "Bibliothèque de L'Ile-du-Havre-Aubert",
    "category": {
      "fr": "Bibliothèque",
      "en": "Library"
    },
    "borough": null,
    "location": {
      "lat": 47.2403946,
      "lng": -61.9049047
    },
    "description": "Bibliothèque  Municipale 418 986-3100",
    "source": ""
  },
  {
    "id": 290,
    "title": "Bibliothèque Noël-Audet (Maria)",
    "category": {
      "fr": "Bibliothèque",
      "en": "Library"
    },
    "borough": null,
    "location": {
      "lat": 48.1746255,
      "lng": -65.9885759
    },
    "description": "Bibliothèque  Affiliée au Réseau BIBLIO 418 759-3832",
    "source": ""
  },
  {
    "id": 291,
    "title": "Bibliothèque de Marsoui",
    "category": {
      "fr": "Bibliothèque",
      "en": "Library"
    },
    "borough": null,
    "location": {
      "lat": 49.2163021,
      "lng": -66.0822585
    },
    "description": "Bibliothèque  Affiliée au Réseau BIBLIO 418 288-5508",
    "source": ""
  },
  {
    "id": 292,
    "title": "Bibliothèque de Matapédia",
    "category": {
      "fr": "Bibliothèque",
      "en": "Library"
    },
    "borough": null,
    "location": {
      "lat": 47.9738231,
      "lng": -66.9539143
    },
    "description": "Bibliothèque  Affiliée au Réseau BIBLIO 418 865-2717",
    "source": ""
  },
  {
    "id": 293,
    "title": "Bibliothèque de Mont-Saint-Pierre",
    "category": {
      "fr": "Bibliothèque",
      "en": "Library"
    },
    "borough": null,
    "location": {
      "lat": 49.2231039,
      "lng": -65.8001065
    },
    "description": "Bibliothèque  Affiliée au Réseau BIBLIO 418 797-2735",
    "source": ""
  },
  {
    "id": 294,
    "title": "Bibliothèque de Murdochville",
    "category": {
      "fr": "Bibliothèque",
      "en": "Library"
    },
    "borough": null,
    "location": {
      "lat": 48.9603173,
      "lng": -65.4963653
    },
    "description": "Bibliothèque  Affiliée au Réseau BIBLIO 418 784-2866",
    "source": ""
  },
  {
    "id": 295,
    "title": "Bibliothèque du Vieux-Couvent (New Richmond)",
    "category": {
      "fr": "Bibliothèque",
      "en": "Library"
    },